[
  {
    "name": "Novotel Chennai Sipcot Old Mahabalipuram Road, ECR Beach, Chennai",
    "lat": 12.83115,
    "lng": 80.230078
  },
  {
    "name": "Novotel Chennai Sipcot Old Mahabalipuram Road, ECR Beach, Chennai",
    "lat": 12.83115,
    "lng": 80.230078
  },
  {
    "name": "Novotel Chennai Sipcot Old Mahabalipuram Road, ECR Beach, Chennai",
    "lat": 12.83115,
    "lng": 80.230078
  },
  {
    "name": "Oyo Flagship 77300 J2 Service Apartment OMR Chennai",
    "lat": 12.901989,
    "lng": 80.2292252
  },
  {
    "name": "Oyo Flagship 77300 J2 Service Apartment OMR Chennai",
    "lat": 12.901989,
    "lng": 80.2292252
  },
  {
    "name": "Oyo Flagship 77300 J2 Service Apartment OMR Chennai",
    "lat": 12.901989,
    "lng": 80.2292252
  },
  {
    "name": "Essentia Premier Hotel Chennai OMR 71/2, OMR, Rajiv Gandhi Salai, Subbarayan Nagar, Thoraipakkam",
    "lat": 12.951399,
    "lng": 80.2418352
  },
  {
    "name": "Essentia Premier Hotel Chennai OMR 71/2, OMR, Rajiv Gandhi Salai, Subbarayan Nagar, Thoraipakkam",
    "lat": 12.951399,
    "lng": 80.2418352
  },
  {
    "name": "Essentia Premier Hotel Chennai OMR 71/2, OMR, Rajiv Gandhi Salai, Subbarayan Nagar, Thoraipakkam",
    "lat": 12.951399,
    "lng": 80.2418352
  },
  {
    "name": "Accord Chrome CLC Works Rd, Shankar Nagar, Chromepet, Chennai, Tamil Nadu",
    "lat": 12.9549782,
    "lng": 80.136938
  },
  {
    "name": "Accord Chrome CLC Works Rd, Shankar Nagar, Chromepet, Chennai, Tamil Nadu",
    "lat": 12.9549782,
    "lng": 80.136938
  },
  {
    "name": "Accord Chrome CLC Works Rd, Shankar Nagar, Chromepet, Chennai, Tamil Nadu",
    "lat": 12.9549782,
    "lng": 80.136938
  },
  {
    "name": "Lemon Tree 72, Sardar Patel Rd, Venkta Puram, Guindy, Chennai, Tamil Nadu",
    "lat": 13.0112204,
    "lng": 80.224681
  },
  {
    "name": "Lemon Tree 72, Sardar Patel Rd, Venkta Puram, Guindy, Chennai, Tamil Nadu",
    "lat": 13.0112204,
    "lng": 80.224681
  },
  {
    "name": "Lemon Tree 72, Sardar Patel Rd, Venkta Puram, Guindy, Chennai, Tamil Nadu",
    "lat": 13.0112204,
    "lng": 80.224681
  },
  {
    "name": "Hostel Madras 139 A, Velachery Rd, Little Mount, Saidapet, Chennai, Tamil Nadu .",
    "lat": 13.0144911,
    "lng": 80.2246538
  },
  {
    "name": "Hostel Madras 139 A, Velachery Rd, Little Mount, Saidapet, Chennai, Tamil Nadu .",
    "lat": 13.0144911,
    "lng": 80.2246538
  },
  {
    "name": "Hostel Madras 139 A, Velachery Rd, Little Mount, Saidapet, Chennai, Tamil Nadu .",
    "lat": 13.0144911,
    "lng": 80.2246538
  },
  {
    "name": "Feathers A Radha Hotel 4, 129, Mount Poonamallee Rd, Manapakkam, Chennai, Tamil Nadu",
    "lat": 13.0216077,
    "lng": 80.1807062
  },
  {
    "name": "Feathers A Radha Hotel 4, 129, Mount Poonamallee Rd, Manapakkam, Chennai, Tamil Nadu",
    "lat": 13.0216077,
    "lng": 80.1807062
  },
  {
    "name": "Feathers A Radha Hotel 4, 129, Mount Poonamallee Rd, Manapakkam, Chennai, Tamil Nadu",
    "lat": 13.0216077,
    "lng": 80.1807062
  },
  {
    "name": "Illam Hotel 27, Cenotaph Road, 1st Street, Teynampet, Seethammal Extension, Teynampet, Chennai",
    "lat": 13.0340871,
    "lng": 80.2470867
  },
  {
    "name": "Illam Hotel 27, Cenotaph Road, 1st Street, Teynampet, Seethammal Extension, Teynampet, Chennai",
    "lat": 13.0340871,
    "lng": 80.2470867
  },
  {
    "name": "Illam Hotel 27, Cenotaph Road, 1st Street, Teynampet, Seethammal Extension, Teynampet, Chennai",
    "lat": 13.0340871,
    "lng": 80.2470867
  },
  {
    "name": "Hotel Rpr Residency Mylapore Chennai",
    "lat": 13.0366892,
    "lng": 80.267315
  },
  {
    "name": "Hotel Rpr Residency Mylapore Chennai",
    "lat": 13.0366892,
    "lng": 80.267315
  },
  {
    "name": "Hotel Rpr Residency Mylapore Chennai",
    "lat": 13.0366892,
    "lng": 80.267315
  },
  {
    "name": "Hotel AR residency 26, Ramachandra St, T. Nagar, Chennai, Tamil Nadu",
    "lat": 13.0450258,
    "lng": 80.2306223
  },
  {
    "name": "Hotel AR residency 26, Ramachandra St, T. Nagar, Chennai, Tamil Nadu",
    "lat": 13.0450258,
    "lng": 80.2306223
  },
  {
    "name": "Hotel AR residency 26, Ramachandra St, T. Nagar, Chennai, Tamil Nadu",
    "lat": 13.0450258,
    "lng": 80.2306223
  },
  {
    "name": "Roshini serviced apartments 4 7 1 &, JVJ TOWER, N Cres Rd, Lakshimi Colony Chennai",
    "lat": 13.0458122,
    "lng": 80.2436389
  },
  {
    "name": "Roshini serviced apartments 4 7 1 &, JVJ TOWER, N Cres Rd, Lakshimi Colony Chennai",
    "lat": 13.0458122,
    "lng": 80.2436389
  },
  {
    "name": "Roshini serviced apartments 4 7 1 &, JVJ TOWER, N Cres Rd, Lakshimi Colony Chennai",
    "lat": 13.0458122,
    "lng": 80.2436389
  },
  {
    "name": "SEASON 4 RESIDENCES 38/16, Cathedral Garden Rd, Gangai Karai Puram, Nungambakkam, Chennai",
    "lat": 13.0518713,
    "lng": 80.2483532
  },
  {
    "name": "SEASON 4 RESIDENCES 38/16, Cathedral Garden Rd, Gangai Karai Puram, Nungambakkam, Chennai",
    "lat": 13.0518713,
    "lng": 80.2483532
  },
  {
    "name": "SEASON 4 RESIDENCES 38/16, Cathedral Garden Rd, Gangai Karai Puram, Nungambakkam, Chennai",
    "lat": 13.0518713,
    "lng": 80.2483532
  },
  {
    "name": "Treebo nestlay 19/3, Mangadu Samy St, Ponnangipuram, Nungambakkam, Chennai, Tamil Nadu",
    "lat": 13.0575012,
    "lng": 80.2440447
  },
  {
    "name": "Treebo nestlay 19/3, Mangadu Samy St, Ponnangipuram, Nungambakkam, Chennai, Tamil Nadu",
    "lat": 13.0575012,
    "lng": 80.2440447
  },
  {
    "name": "Treebo nestlay 19/3, Mangadu Samy St, Ponnangipuram, Nungambakkam, Chennai, Tamil Nadu",
    "lat": 13.0575012,
    "lng": 80.2440447
  },
  {
    "name": "Xavier Rajan Guest House 11 Gulam Abbas Alikhan 7thstreet, Thousand Lights Chennai",
    "lat": 13.0575456,
    "lng": 80.251515
  },
  {
    "name": "Xavier Rajan Guest House 11 Gulam Abbas Alikhan 7thstreet, Thousand Lights Chennai",
    "lat": 13.0575456,
    "lng": 80.251515
  },
  {
    "name": "Xavier Rajan Guest House 11 Gulam Abbas Alikhan 7thstreet, Thousand Lights Chennai",
    "lat": 13.0575456,
    "lng": 80.251515
  },
  {
    "name": "Chepauk Residency Triplicane, Chennai 24, Venkatesan St, Chepauk, Chennai, Chennai/ Pin, Triplicane",
    "lat": 13.0641282,
    "lng": 80.2769752
  },
  {
    "name": "Chepauk Residency Triplicane, Chennai 24, Venkatesan St, Chepauk, Chennai, Chennai/ Pin, Triplicane",
    "lat": 13.0641282,
    "lng": 80.2769752
  },
  {
    "name": "Chepauk Residency Triplicane, Chennai 24, Venkatesan St, Chepauk, Chennai, Chennai/ Pin, Triplicane",
    "lat": 13.0641282,
    "lng": 80.2769752
  },
  {
    "name": "Sukavi Guest House No16, Boobegum St, Anna Salai, Border Thottam, Padupakkam, Triplicane, Chennai",
    "lat": 13.0625989,
    "lng": 80.2680563
  },
  {
    "name": "Sukavi Guest House No16, Boobegum St, Anna Salai, Border Thottam, Padupakkam, Triplicane, Chennai",
    "lat": 13.0625989,
    "lng": 80.2680563
  },
  {
    "name": "Sukavi Guest House No16, Boobegum St, Anna Salai, Border Thottam, Padupakkam, Triplicane, Chennai",
    "lat": 13.0625989,
    "lng": 80.2680563
  },
  {
    "name": "primark guest house 29, 14, C.N.K Rd, CN Krishna Swamy Salai, Chepauk, Triplicane, Chennai",
    "lat": 13.0635148,
    "lng": 80.275246
  },
  {
    "name": "primark guest house 29, 14, C.N.K Rd, CN Krishna Swamy Salai, Chepauk, Triplicane, Chennai",
    "lat": 13.0635148,
    "lng": 80.275246
  },
  {
    "name": "primark guest house 29, 14, C.N.K Rd, CN Krishna Swamy Salai, Chepauk, Triplicane, Chennai",
    "lat": 13.0635148,
    "lng": 80.275246
  },
  {
    "name": "Simsan Hotel 36G2+PGX, 85, Poonamallee High Rd, West, Pallavan Nagar, Koyambedu, Chennai",
    "lat": 13.0763258,
    "lng": 80.2015452
  },
  {
    "name": "Simsan Hotel 36G2+PGX, 85, Poonamallee High Rd, West, Pallavan Nagar, Koyambedu, Chennai",
    "lat": 13.0763258,
    "lng": 80.2015452
  },
  {
    "name": "Simsan Hotel 36G2+PGX, 85, Poonamallee High Rd, West, Pallavan Nagar, Koyambedu, Chennai",
    "lat": 13.0763258,
    "lng": 80.2015452
  },
  {
    "name": "hotel pride kilpauk Chennai",
    "lat": 13.0791922,
    "lng": 80.2490584
  },
  {
    "name": "hotel pride kilpauk Chennai",
    "lat": 13.0791922,
    "lng": 80.2490584
  },
  {
    "name": "hotel pride kilpauk Chennai",
    "lat": 13.0791922,
    "lng": 80.2490584
  },
  {
    "name": "Hotel Grand Tower Poonamalee High Road Chennai",
    "lat": 13.0809309,
    "lng": 80.2700061
  },
  {
    "name": "Hotel Grand Tower Poonamalee High Road Chennai",
    "lat": 13.0809309,
    "lng": 80.2700061
  },
  {
    "name": "Hotel Grand Tower Poonamalee High Road Chennai",
    "lat": 13.0809309,
    "lng": 80.2700061
  },
  {
    "name": "Hotel Kurinchi No.?22 Cuddappah Cudappa Rangaiah Street, Periamet/Park Town, Chennai",
    "lat": 13.0819325,
    "lng": 80.2678896
  },
  {
    "name": "Hotel Kurinchi No.?22 Cuddappah Cudappa Rangaiah Street, Periamet/Park Town, Chennai",
    "lat": 13.0819325,
    "lng": 80.2678896
  },
  {
    "name": "Hotel Kurinchi No.?22 Cuddappah Cudappa Rangaiah Street, Periamet/Park Town, Chennai",
    "lat": 13.0819325,
    "lng": 80.2678896
  },
  {
    "name": "Hotel Sky Home Perimet Chennai",
    "lat": 13.0824806,
    "lng": 80.2704713
  },
  {
    "name": "Hotel Sky Home Perimet Chennai",
    "lat": 13.0824806,
    "lng": 80.2704713
  },
  {
    "name": "Hotel Sky Home Perimet Chennai",
    "lat": 13.0824806,
    "lng": 80.2704713
  },
  {
    "name": "Hotel Samudhara Inns Poonamalee High Road Chennai",
    "lat": 13.0809274,
    "lng": 80.2689848
  },
  {
    "name": "Hotel Samudhara Inns Poonamalee High Road Chennai",
    "lat": 13.0809274,
    "lng": 80.2689848
  },
  {
    "name": "Hotel Samudhara Inns Poonamalee High Road Chennai",
    "lat": 13.0809274,
    "lng": 80.2689848
  },
  {
    "name": "RAJBHAVAN GUEST HOUSE 21, 3, Kulanthai St, Pennagaram, Purasaiwakkam, Chennai",
    "lat": 13.0855428,
    "lng": 80.2556195
  },
  {
    "name": "RAJBHAVAN GUEST HOUSE 21, 3, Kulanthai St, Pennagaram, Purasaiwakkam, Chennai",
    "lat": 13.0855428,
    "lng": 80.2556195
  },
  {
    "name": "RAJBHAVAN GUEST HOUSE 21, 3, Kulanthai St, Pennagaram, Purasaiwakkam, Chennai",
    "lat": 13.0855428,
    "lng": 80.2556195
  },
  {
    "name": "Hotel Citizen Guest House Parrys Area Chennai",
    "lat": 13.0893627,
    "lng": 80.2870307
  },
  {
    "name": "Hotel Citizen Guest House Parrys Area Chennai",
    "lat": 13.0893627,
    "lng": 80.2870307
  },
  {
    "name": "Hotel Citizen Guest House Parrys Area Chennai",
    "lat": 13.0893627,
    "lng": 80.2870307
  },
  {
    "name": "Oyo Flagship 35443 Kls Residency Central Chennai",
    "lat": 13.0843007,
    "lng": 80.2704622
  },
  {
    "name": "Oyo Flagship 35443 Kls Residency Central Chennai",
    "lat": 13.0843007,
    "lng": 80.2704622
  },
  {
    "name": "Oyo Flagship 35443 Kls Residency Central Chennai",
    "lat": 13.0843007,
    "lng": 80.2704622
  },
  {
    "name": "Oyo 80468 CollectionO Phoenix Pleasant Stays OMR Chennai",
    "lat": 13.0843007,
    "lng": 80.2704622
  },
  {
    "name": "Oyo 80468 CollectionO Phoenix Pleasant Stays OMR Chennai",
    "lat": 13.0843007,
    "lng": 80.2704622
  },
  {
    "name": "Oyo 80468 CollectionO Phoenix Pleasant Stays OMR Chennai",
    "lat": 13.0843007,
    "lng": 80.2704622
  },
  {
    "name": "hotel citadiness omr 290 rajhiv gandhi salai Chennai",
    "lat": 12.9131561,
    "lng": 80.2292333
  },
  {
    "name": "hotel citadiness omr 290 rajhiv gandhi salai Chennai",
    "lat": 12.9131561,
    "lng": 80.2292333
  },
  {
    "name": "hotel citadiness omr 290 rajhiv gandhi salai Chennai",
    "lat": 12.9131561,
    "lng": 80.2292333
  },
  {
    "name": "hotel citadiness omr 290 rajhiv gandhi salai Chennai",
    "lat": 12.9131561,
    "lng": 80.2292333
  },
  {
    "name": "Crayons Hotel 2, & No.3B, UDS Street, OMR, Thoraipakkam, Chennai, Tamil Nadu",
    "lat": 12.9416037,
    "lng": 80.2362096
  },
  {
    "name": "Crayons Hotel 2, & No.3B, UDS Street, OMR, Thoraipakkam, Chennai, Tamil Nadu",
    "lat": 12.9416037,
    "lng": 80.2362096
  },
  {
    "name": "Crayons Hotel 2, & No.3B, UDS Street, OMR, Thoraipakkam, Chennai, Tamil Nadu",
    "lat": 12.9416037,
    "lng": 80.2362096
  },
  {
    "name": "Crayons Hotel 2, & No.3B, UDS Street, OMR, Thoraipakkam, Chennai, Tamil Nadu",
    "lat": 12.9416037,
    "lng": 80.2362096
  },
  {
    "name": "Sekaran Chennai OMR Sekaran Chennai OMR 14/15 MGR Main Road OMR Perungudi, Kandhan chavady",
    "lat": 12.9646762,
    "lng": 80.2463956
  },
  {
    "name": "Sekaran Chennai OMR Sekaran Chennai OMR 14/15 MGR Main Road OMR Perungudi, Kandhan chavady",
    "lat": 12.9646762,
    "lng": 80.2463956
  },
  {
    "name": "Sekaran Chennai OMR Sekaran Chennai OMR 14/15 MGR Main Road OMR Perungudi, Kandhan chavady",
    "lat": 12.9646762,
    "lng": 80.2463956
  },
  {
    "name": "Sekaran Chennai OMR Sekaran Chennai OMR 14/15 MGR Main Road OMR Perungudi, Kandhan chavady",
    "lat": 12.9646762,
    "lng": 80.2463956
  },
  {
    "name": "St. Thomas inn 5/69, Butt lane, Butt Road, St Thomas Mount, Chennai, Tamil Nadu",
    "lat": 13.0084859,
    "lng": 80.19586
  },
  {
    "name": "St. Thomas inn 5/69, Butt lane, Butt Road, St Thomas Mount, Chennai, Tamil Nadu",
    "lat": 13.0084859,
    "lng": 80.19586
  },
  {
    "name": "St. Thomas inn 5/69, Butt lane, Butt Road, St Thomas Mount, Chennai, Tamil Nadu",
    "lat": 13.0084859,
    "lng": 80.19586
  },
  {
    "name": "St. Thomas inn 5/69, Butt lane, Butt Road, St Thomas Mount, Chennai, Tamil Nadu",
    "lat": 13.0084859,
    "lng": 80.19586
  },
  {
    "name": "Green palace Chennai S Dhandapani St, T. Nagar, Chennai, Tamil Nadu, India",
    "lat": 13.0341908,
    "lng": 80.2333367
  },
  {
    "name": "Green palace Chennai S Dhandapani St, T. Nagar, Chennai, Tamil Nadu, India",
    "lat": 13.0341908,
    "lng": 80.2333367
  },
  {
    "name": "Green palace Chennai S Dhandapani St, T. Nagar, Chennai, Tamil Nadu, India",
    "lat": 13.0341908,
    "lng": 80.2333367
  },
  {
    "name": "Green palace Chennai S Dhandapani St, T. Nagar, Chennai, Tamil Nadu, India",
    "lat": 13.0341908,
    "lng": 80.2333367
  },
  {
    "name": "Empire inn Hotel NO 525, 582, OLD, Anna Salai, T.V.K Colony, Teynampet, Chennai, Tamil Nadu",
    "lat": 13.0400589,
    "lng": 80.2469277
  },
  {
    "name": "Empire inn Hotel NO 525, 582, OLD, Anna Salai, T.V.K Colony, Teynampet, Chennai, Tamil Nadu",
    "lat": 13.0400589,
    "lng": 80.2469277
  },
  {
    "name": "Empire inn Hotel NO 525, 582, OLD, Anna Salai, T.V.K Colony, Teynampet, Chennai, Tamil Nadu",
    "lat": 13.0400589,
    "lng": 80.2469277
  },
  {
    "name": "Empire inn Hotel NO 525, 582, OLD, Anna Salai, T.V.K Colony, Teynampet, Chennai, Tamil Nadu",
    "lat": 13.0400589,
    "lng": 80.2469277
  },
  {
    "name": "GT Grande Hotel 30, 2nd Street, N Boag Rd, Singapore Consulate, T. Nagar, Chennai, Tamil Nadu",
    "lat": 13.046314,
    "lng": 80.2464463
  },
  {
    "name": "GT Grande Hotel 30, 2nd Street, N Boag Rd, Singapore Consulate, T. Nagar, Chennai, Tamil Nadu",
    "lat": 13.046314,
    "lng": 80.2464463
  },
  {
    "name": "GT Grande Hotel 30, 2nd Street, N Boag Rd, Singapore Consulate, T. Nagar, Chennai, Tamil Nadu",
    "lat": 13.046314,
    "lng": 80.2464463
  },
  {
    "name": "GT Grande Hotel 30, 2nd Street, N Boag Rd, Singapore Consulate, T. Nagar, Chennai, Tamil Nadu",
    "lat": 13.046314,
    "lng": 80.2464463
  },
  {
    "name": "Hotel Sabari T Nagar Chennai",
    "lat": 13.0475929,
    "lng": 80.2400513
  },
  {
    "name": "Hotel Sabari T Nagar Chennai",
    "lat": 13.0475929,
    "lng": 80.2400513
  },
  {
    "name": "Hotel Sabari T Nagar Chennai",
    "lat": 13.0475929,
    "lng": 80.2400513
  },
  {
    "name": "Hotel Sabari T Nagar Chennai",
    "lat": 13.0475929,
    "lng": 80.2400513
  },
  {
    "name": "metropark 61/8, Karumari Amman Koil St, Thirunagar, Bhakthavathchalam Colony, Vadapalani, Chennai",
    "lat": 13.0550141,
    "lng": 80.2121348
  },
  {
    "name": "metropark 61/8, Karumari Amman Koil St, Thirunagar, Bhakthavathchalam Colony, Vadapalani, Chennai",
    "lat": 13.0550141,
    "lng": 80.2121348
  },
  {
    "name": "metropark 61/8, Karumari Amman Koil St, Thirunagar, Bhakthavathchalam Colony, Vadapalani, Chennai",
    "lat": 13.0550141,
    "lng": 80.2121348
  },
  {
    "name": "metropark 61/8, Karumari Amman Koil St, Thirunagar, Bhakthavathchalam Colony, Vadapalani, Chennai",
    "lat": 13.0550141,
    "lng": 80.2121348
  },
  {
    "name": "Mount residency NO4, Arumugam St, Anna Salai, Chennai, Tamil\u00c3\u0192\u00e2\u20ac\u0161 Nadu\u00c3\u0192\u00e2\u20ac\u0161",
    "lat": 13.0630458,
    "lng": 80.2656532
  },
  {
    "name": "Mount residency NO4, Arumugam St, Anna Salai, Chennai, Tamil\u00c3\u0192\u00e2\u20ac\u0161 Nadu\u00c3\u0192\u00e2\u20ac\u0161",
    "lat": 13.0630458,
    "lng": 80.2656532
  },
  {
    "name": "Mount residency NO4, Arumugam St, Anna Salai, Chennai, Tamil\u00c3\u0192\u00e2\u20ac\u0161 Nadu\u00c3\u0192\u00e2\u20ac\u0161",
    "lat": 13.0630458,
    "lng": 80.2656532
  },
  {
    "name": "Mount residency NO4, Arumugam St, Anna Salai, Chennai, Tamil\u00c3\u0192\u00e2\u20ac\u0161 Nadu\u00c3\u0192\u00e2\u20ac\u0161",
    "lat": 13.0630458,
    "lng": 80.2656532
  },
  {
    "name": "Aayush Residency 377F+HMJ, Triplicane High Rd, Police Quarters, Triplicane, Chennai",
    "lat": 13.063962,
    "lng": 80.274139
  },
  {
    "name": "Aayush Residency 377F+HMJ, Triplicane High Rd, Police Quarters, Triplicane, Chennai",
    "lat": 13.063962,
    "lng": 80.274139
  },
  {
    "name": "Aayush Residency 377F+HMJ, Triplicane High Rd, Police Quarters, Triplicane, Chennai",
    "lat": 13.063962,
    "lng": 80.274139
  },
  {
    "name": "Aayush Residency 377F+HMJ, Triplicane High Rd, Police Quarters, Triplicane, Chennai",
    "lat": 13.063962,
    "lng": 80.274139
  },
  {
    "name": "hotel zaras inn royapettah Chennai",
    "lat": 13.0651207,
    "lng": 80.2774014
  },
  {
    "name": "hotel zaras inn royapettah Chennai",
    "lat": 13.0651207,
    "lng": 80.2774014
  },
  {
    "name": "hotel zaras inn royapettah Chennai",
    "lat": 13.0651207,
    "lng": 80.2774014
  },
  {
    "name": "hotel zaras inn royapettah Chennai",
    "lat": 13.0651207,
    "lng": 80.2774014
  },
  {
    "name": "Otc Mansion Triplicane Chennai",
    "lat": 13.0656495,
    "lng": 80.2741179
  },
  {
    "name": "Otc Mansion Triplicane Chennai",
    "lat": 13.0656495,
    "lng": 80.2741179
  },
  {
    "name": "Otc Mansion Triplicane Chennai",
    "lat": 13.0656495,
    "lng": 80.2741179
  },
  {
    "name": "Otc Mansion Triplicane Chennai",
    "lat": 13.0656495,
    "lng": 80.2741179
  },
  {
    "name": "Mount Gate Triplicane Chennai",
    "lat": 13.0665014,
    "lng": 80.2727393
  },
  {
    "name": "Mount Gate Triplicane Chennai",
    "lat": 13.0665014,
    "lng": 80.2727393
  },
  {
    "name": "Mount Gate Triplicane Chennai",
    "lat": 13.0665014,
    "lng": 80.2727393
  },
  {
    "name": "Mount Gate Triplicane Chennai",
    "lat": 13.0665014,
    "lng": 80.2727393
  },
  {
    "name": "Garden City Palace No. 6 Tippu Sahib Stree, Triplicane Chennai",
    "lat": 13.0666356,
    "lng": 80.2705369
  },
  {
    "name": "Garden City Palace No. 6 Tippu Sahib Stree, Triplicane Chennai",
    "lat": 13.0666356,
    "lng": 80.2705369
  },
  {
    "name": "Garden City Palace No. 6 Tippu Sahib Stree, Triplicane Chennai",
    "lat": 13.0666356,
    "lng": 80.2705369
  },
  {
    "name": "Garden City Palace No. 6 Tippu Sahib Stree, Triplicane Chennai",
    "lat": 13.0666356,
    "lng": 80.2705369
  },
  {
    "name": "Vestin Park Hotel 39, Red Cross Rd, Egmore, Chennai, Tamil Nadu",
    "lat": 13.0677202,
    "lng": 80.258997
  },
  {
    "name": "Vestin Park Hotel 39, Red Cross Rd, Egmore, Chennai, Tamil Nadu",
    "lat": 13.0677202,
    "lng": 80.258997
  },
  {
    "name": "Vestin Park Hotel 39, Red Cross Rd, Egmore, Chennai, Tamil Nadu",
    "lat": 13.0677202,
    "lng": 80.258997
  },
  {
    "name": "Vestin Park Hotel 39, Red Cross Rd, Egmore, Chennai, Tamil Nadu",
    "lat": 13.0677202,
    "lng": 80.258997
  },
  {
    "name": "Osianic residency 379C+CJ7, Mount Rd, Mount Road, Anna Salai, Chintadripet, Chennai, Tamil Nadu 600",
    "lat": 13.0685253,
    "lng": 80.2715557
  },
  {
    "name": "Osianic residency 379C+CJ7, Mount Rd, Mount Road, Anna Salai, Chintadripet, Chennai, Tamil Nadu 600",
    "lat": 13.0685253,
    "lng": 80.2715557
  },
  {
    "name": "Osianic residency 379C+CJ7, Mount Rd, Mount Road, Anna Salai, Chintadripet, Chennai, Tamil Nadu 600",
    "lat": 13.0685253,
    "lng": 80.2715557
  },
  {
    "name": "Osianic residency 379C+CJ7, Mount Rd, Mount Road, Anna Salai, Chintadripet, Chennai, Tamil Nadu 600",
    "lat": 13.0685253,
    "lng": 80.2715557
  },
  {
    "name": "Hotel Veluett Villa Egmore Chennai",
    "lat": 13.0777797,
    "lng": 80.262661
  },
  {
    "name": "Hotel Veluett Villa Egmore Chennai",
    "lat": 13.0777797,
    "lng": 80.262661
  },
  {
    "name": "Hotel Veluett Villa Egmore Chennai",
    "lat": 13.0777797,
    "lng": 80.262661
  },
  {
    "name": "Hotel Veluett Villa Egmore Chennai",
    "lat": 13.0777797,
    "lng": 80.262661
  },
  {
    "name": "Evr periyar 1st lane Chennai",
    "lat": 13.0797158,
    "lng": 80.251942
  },
  {
    "name": "Evr periyar 1st lane Chennai",
    "lat": 13.0797158,
    "lng": 80.251942
  },
  {
    "name": "Evr periyar 1st lane Chennai",
    "lat": 13.0797158,
    "lng": 80.251942
  },
  {
    "name": "Evr periyar 1st lane Chennai",
    "lat": 13.0797158,
    "lng": 80.251942
  },
  {
    "name": "Virudhunagar Nadar Mansion 50, Poonamallee High Rd, Periamet, Park Town, Chennai, Tamil Nadu",
    "lat": 13.0809371,
    "lng": 80.2693252
  },
  {
    "name": "Virudhunagar Nadar Mansion 50, Poonamallee High Rd, Periamet, Park Town, Chennai, Tamil Nadu",
    "lat": 13.0809371,
    "lng": 80.2693252
  },
  {
    "name": "Virudhunagar Nadar Mansion 50, Poonamallee High Rd, Periamet, Park Town, Chennai, Tamil Nadu",
    "lat": 13.0809371,
    "lng": 80.2693252
  },
  {
    "name": "Virudhunagar Nadar Mansion 50, Poonamallee High Rd, Periamet, Park Town, Chennai, Tamil Nadu",
    "lat": 13.0809371,
    "lng": 80.2693252
  },
  {
    "name": "63/26, Thiruvengadam St, Periamet, Park Town, Chennai",
    "lat": 13.0825375,
    "lng": 80.2674634
  },
  {
    "name": "63/26, Thiruvengadam St, Periamet, Park Town, Chennai",
    "lat": 13.0825375,
    "lng": 80.2674634
  },
  {
    "name": "63/26, Thiruvengadam St, Periamet, Park Town, Chennai",
    "lat": 13.0825375,
    "lng": 80.2674634
  },
  {
    "name": "63/26, Thiruvengadam St, Periamet, Park Town, Chennai",
    "lat": 13.0825375,
    "lng": 80.2674634
  },
  {
    "name": "Hotel IS Lodge Periamet Chennai",
    "lat": 13.0823688,
    "lng": 80.2660576
  },
  {
    "name": "Hotel IS Lodge Periamet Chennai",
    "lat": 13.0823688,
    "lng": 80.2660576
  },
  {
    "name": "Hotel IS Lodge Periamet Chennai",
    "lat": 13.0823688,
    "lng": 80.2660576
  },
  {
    "name": "Hotel IS Lodge Periamet Chennai",
    "lat": 13.0823688,
    "lng": 80.2660576
  },
  {
    "name": "Al fouz guest house 231532, Ram Nagar Road, J J Nagar, Mogappair East, Chennai, Tamil Nadu",
    "lat": 13.0873781,
    "lng": 80.1867741
  },
  {
    "name": "Al fouz guest house 231532, Ram Nagar Road, J J Nagar, Mogappair East, Chennai, Tamil Nadu",
    "lat": 13.0873781,
    "lng": 80.1867741
  },
  {
    "name": "Al fouz guest house 231532, Ram Nagar Road, J J Nagar, Mogappair East, Chennai, Tamil Nadu",
    "lat": 13.0873781,
    "lng": 80.1867741
  },
  {
    "name": "Al fouz guest house 231532, Ram Nagar Road, J J Nagar, Mogappair East, Chennai, Tamil Nadu",
    "lat": 13.0873781,
    "lng": 80.1867741
  },
  {
    "name": "MTC GUEST HOUSE TRIPLICANE Miyan Saheb, Wallajah road venkatesan street, 1st St, Chennai",
    "lat": 13.0649833,
    "lng": 80.2770054
  },
  {
    "name": "MTC GUEST HOUSE TRIPLICANE Miyan Saheb, Wallajah road venkatesan street, 1st St, Chennai",
    "lat": 13.0649833,
    "lng": 80.2770054
  },
  {
    "name": "MTC GUEST HOUSE TRIPLICANE Miyan Saheb, Wallajah road venkatesan street, 1st St, Chennai",
    "lat": 13.0649833,
    "lng": 80.2770054
  },
  {
    "name": "MTC GUEST HOUSE TRIPLICANE Miyan Saheb, Wallajah road venkatesan street, 1st St, Chennai",
    "lat": 13.0649833,
    "lng": 80.2770054
  },
  {
    "name": "Hotel Seena Mansion Chennai",
    "lat": 13.0843007,
    "lng": 80.2704622
  },
  {
    "name": "Hotel Seena Mansion Chennai",
    "lat": 13.0843007,
    "lng": 80.2704622
  },
  {
    "name": "Hotel Seena Mansion Chennai",
    "lat": 13.0843007,
    "lng": 80.2704622
  },
  {
    "name": "Hotel Seena Mansion Chennai",
    "lat": 13.0843007,
    "lng": 80.2704622
  },
  {
    "name": "Vairam Guest House No 17/8, Ribbon Building & Chennai Managarachi osite, Karpura Mudali Street",
    "lat": 13.0843007,
    "lng": 80.2704622
  },
  {
    "name": "Vairam Guest House No 17/8, Ribbon Building & Chennai Managarachi osite, Karpura Mudali Street",
    "lat": 13.0843007,
    "lng": 80.2704622
  },
  {
    "name": "Vairam Guest House No 17/8, Ribbon Building & Chennai Managarachi osite, Karpura Mudali Street",
    "lat": 13.0843007,
    "lng": 80.2704622
  },
  {
    "name": "Vairam Guest House No 17/8, Ribbon Building & Chennai Managarachi osite, Karpura Mudali Street",
    "lat": 13.0843007,
    "lng": 80.2704622
  },
  {
    "name": "GREENS INNS 170/1, 178/1, 170/2, 178/2, Angappan Naicken Street, Mannady, Chennai, , India",
    "lat": 13.095408,
    "lng": 80.2904527
  },
  {
    "name": "GREENS INNS 170/1, 178/1, 170/2, 178/2, Angappan Naicken Street, Mannady, Chennai, , India",
    "lat": 13.095408,
    "lng": 80.2904527
  },
  {
    "name": "GREENS INNS 170/1, 178/1, 170/2, 178/2, Angappan Naicken Street, Mannady, Chennai, , India",
    "lat": 13.095408,
    "lng": 80.2904527
  },
  {
    "name": "GREENS INNS 170/1, 178/1, 170/2, 178/2, Angappan Naicken Street, Mannady, Chennai, , India",
    "lat": 13.095408,
    "lng": 80.2904527
  },
  {
    "name": "Hotel Rahmath Mansion Parrys Area Chennai",
    "lat": 13.0870924,
    "lng": 80.2875634
  },
  {
    "name": "Hotel Rahmath Mansion Parrys Area Chennai",
    "lat": 13.0870924,
    "lng": 80.2875634
  },
  {
    "name": "Hotel Rahmath Mansion Parrys Area Chennai",
    "lat": 13.0870924,
    "lng": 80.2875634
  },
  {
    "name": "Hotel Rahmath Mansion Parrys Area Chennai",
    "lat": 13.0870924,
    "lng": 80.2875634
  },
  {
    "name": "Hotel Alreef Recidency Parrys Area Chennai",
    "lat": 13.0965888,
    "lng": 80.2879139
  },
  {
    "name": "Hotel Alreef Recidency Parrys Area Chennai",
    "lat": 13.0965888,
    "lng": 80.2879139
  },
  {
    "name": "Hotel Alreef Recidency Parrys Area Chennai",
    "lat": 13.0965888,
    "lng": 80.2879139
  },
  {
    "name": "Hotel Alreef Recidency Parrys Area Chennai",
    "lat": 13.0965888,
    "lng": 80.2879139
  },
  {
    "name": "Hotel G.P Mansion Parrys Area Chennai",
    "lat": 13.0993311,
    "lng": 80.2889886
  },
  {
    "name": "Hotel G.P Mansion Parrys Area Chennai",
    "lat": 13.0993311,
    "lng": 80.2889886
  },
  {
    "name": "Hotel G.P Mansion Parrys Area Chennai",
    "lat": 13.0993311,
    "lng": 80.2889886
  },
  {
    "name": "Hotel G.P Mansion Parrys Area Chennai",
    "lat": 13.0993311,
    "lng": 80.2889886
  },
  {
    "name": "B8 Hotel, Chennai 200 feet road, 8 AR Garden Road, North, behind DRJ Hospital, Kolathur, Chennai",
    "lat": 13.122653,
    "lng": 80.1991713
  },
  {
    "name": "B8 Hotel, Chennai 200 feet road, 8 AR Garden Road, North, behind DRJ Hospital, Kolathur, Chennai",
    "lat": 13.122653,
    "lng": 80.1991713
  },
  {
    "name": "B8 Hotel, Chennai 200 feet road, 8 AR Garden Road, North, behind DRJ Hospital, Kolathur, Chennai",
    "lat": 13.122653,
    "lng": 80.1991713
  },
  {
    "name": "B8 Hotel, Chennai 200 feet road, 8 AR Garden Road, North, behind DRJ Hospital, Kolathur, Chennai",
    "lat": 13.122653,
    "lng": 80.1991713
  },
  {
    "name": "Collection O 41930 Citrine Cheran Nagar OMR Chennai",
    "lat": 12.9051105,
    "lng": 80.2080408
  },
  {
    "name": "Collection O 41930 Citrine Cheran Nagar OMR Chennai",
    "lat": 12.9051105,
    "lng": 80.2080408
  },
  {
    "name": "Collection O 41930 Citrine Cheran Nagar OMR Chennai",
    "lat": 12.9051105,
    "lng": 80.2080408
  },
  {
    "name": "Collection O 41930 Citrine Cheran Nagar OMR Chennai",
    "lat": 12.9051105,
    "lng": 80.2080408
  },
  {
    "name": "Collection O 41930 Citrine Cheran Nagar OMR Chennai",
    "lat": 12.9051105,
    "lng": 80.2080408
  },
  {
    "name": "Oyo Flagship 87029 Hotel Tiara Grand OMR Chennai",
    "lat": 13.0843007,
    "lng": 80.2704622
  },
  {
    "name": "Oyo Flagship 87029 Hotel Tiara Grand OMR Chennai",
    "lat": 13.0843007,
    "lng": 80.2704622
  },
  {
    "name": "Oyo Flagship 87029 Hotel Tiara Grand OMR Chennai",
    "lat": 13.0843007,
    "lng": 80.2704622
  },
  {
    "name": "Oyo Flagship 87029 Hotel Tiara Grand OMR Chennai",
    "lat": 13.0843007,
    "lng": 80.2704622
  },
  {
    "name": "Oyo Flagship 87029 Hotel Tiara Grand OMR Chennai",
    "lat": 13.0843007,
    "lng": 80.2704622
  },
  {
    "name": "HABLIS  A HOTEL IN BUSINESS 9, Grand Southern Trunk Rd, Ramapuram, Guindy, Chennai, Tamil Nadu 600",
    "lat": 13.00044,
    "lng": 80.1990333
  },
  {
    "name": "HABLIS  A HOTEL IN BUSINESS 9, Grand Southern Trunk Rd, Ramapuram, Guindy, Chennai, Tamil Nadu 600",
    "lat": 13.00044,
    "lng": 80.1990333
  },
  {
    "name": "HABLIS  A HOTEL IN BUSINESS 9, Grand Southern Trunk Rd, Ramapuram, Guindy, Chennai, Tamil Nadu 600",
    "lat": 13.00044,
    "lng": 80.1990333
  },
  {
    "name": "HABLIS  A HOTEL IN BUSINESS 9, Grand Southern Trunk Rd, Ramapuram, Guindy, Chennai, Tamil Nadu 600",
    "lat": 13.00044,
    "lng": 80.1990333
  },
  {
    "name": "HABLIS  A HOTEL IN BUSINESS 9, Grand Southern Trunk Rd, Ramapuram, Guindy, Chennai, Tamil Nadu 600",
    "lat": 13.00044,
    "lng": 80.1990333
  },
  {
    "name": "Lakshmi Nest 6, 1st Canal Cross Rd, Gandhi Nagar, Adyar, Chennai, Tamil Nadu",
    "lat": 13.008631,
    "lng": 80.249804
  },
  {
    "name": "Lakshmi Nest 6, 1st Canal Cross Rd, Gandhi Nagar, Adyar, Chennai, Tamil Nadu",
    "lat": 13.008631,
    "lng": 80.249804
  },
  {
    "name": "Lakshmi Nest 6, 1st Canal Cross Rd, Gandhi Nagar, Adyar, Chennai, Tamil Nadu",
    "lat": 13.008631,
    "lng": 80.249804
  },
  {
    "name": "Lakshmi Nest 6, 1st Canal Cross Rd, Gandhi Nagar, Adyar, Chennai, Tamil Nadu",
    "lat": 13.008631,
    "lng": 80.249804
  },
  {
    "name": "Lakshmi Nest 6, 1st Canal Cross Rd, Gandhi Nagar, Adyar, Chennai, Tamil Nadu",
    "lat": 13.008631,
    "lng": 80.249804
  },
  {
    "name": "GRAND CONTINENT HOTELS LTD 22/42, T. Nagar, Chennai, Tamil Nadu",
    "lat": 13.0372895,
    "lng": 80.2340516
  },
  {
    "name": "GRAND CONTINENT HOTELS LTD 22/42, T. Nagar, Chennai, Tamil Nadu",
    "lat": 13.0372895,
    "lng": 80.2340516
  },
  {
    "name": "GRAND CONTINENT HOTELS LTD 22/42, T. Nagar, Chennai, Tamil Nadu",
    "lat": 13.0372895,
    "lng": 80.2340516
  },
  {
    "name": "GRAND CONTINENT HOTELS LTD 22/42, T. Nagar, Chennai, Tamil Nadu",
    "lat": 13.0372895,
    "lng": 80.2340516
  },
  {
    "name": "GRAND CONTINENT HOTELS LTD 22/42, T. Nagar, Chennai, Tamil Nadu",
    "lat": 13.0372895,
    "lng": 80.2340516
  },
  {
    "name": "Collection O 77196 C Suites Lake View Park OMR Chennai",
    "lat": 12.9139806,
    "lng": 80.2293986
  },
  {
    "name": "Collection O 77196 C Suites Lake View Park OMR Chennai",
    "lat": 12.9139806,
    "lng": 80.2293986
  },
  {
    "name": "Collection O 77196 C Suites Lake View Park OMR Chennai",
    "lat": 12.9139806,
    "lng": 80.2293986
  },
  {
    "name": "Collection O 77196 C Suites Lake View Park OMR Chennai",
    "lat": 12.9139806,
    "lng": 80.2293986
  },
  {
    "name": "Collection O 77196 C Suites Lake View Park OMR Chennai",
    "lat": 12.9139806,
    "lng": 80.2293986
  },
  {
    "name": "Avenue 11 No.?11, Raghava Veera Avenue, Poes Garden, Teynampet, Chennai, Tamil Nadu?600?086, India",
    "lat": 13.0425225,
    "lng": 80.2529949
  },
  {
    "name": "Avenue 11 No.?11, Raghava Veera Avenue, Poes Garden, Teynampet, Chennai, Tamil Nadu?600?086, India",
    "lat": 13.0425225,
    "lng": 80.2529949
  },
  {
    "name": "Avenue 11 No.?11, Raghava Veera Avenue, Poes Garden, Teynampet, Chennai, Tamil Nadu?600?086, India",
    "lat": 13.0425225,
    "lng": 80.2529949
  },
  {
    "name": "Avenue 11 No.?11, Raghava Veera Avenue, Poes Garden, Teynampet, Chennai, Tamil Nadu?600?086, India",
    "lat": 13.0425225,
    "lng": 80.2529949
  },
  {
    "name": "Avenue 11 No.?11, Raghava Veera Avenue, Poes Garden, Teynampet, Chennai, Tamil Nadu?600?086, India",
    "lat": 13.0425225,
    "lng": 80.2529949
  },
  {
    "name": "Royal Orchid 3788+9V7, Anna Salai, Chennai, Tamil Nadu",
    "lat": 13.0425386,
    "lng": 80.247538
  },
  {
    "name": "Royal Orchid 3788+9V7, Anna Salai, Chennai, Tamil Nadu",
    "lat": 13.0425386,
    "lng": 80.247538
  },
  {
    "name": "Royal Orchid 3788+9V7, Anna Salai, Chennai, Tamil Nadu",
    "lat": 13.0425386,
    "lng": 80.247538
  },
  {
    "name": "Royal Orchid 3788+9V7, Anna Salai, Chennai, Tamil Nadu",
    "lat": 13.0425386,
    "lng": 80.247538
  },
  {
    "name": "Royal Orchid 3788+9V7, Anna Salai, Chennai, Tamil Nadu",
    "lat": 13.0425386,
    "lng": 80.247538
  },
  {
    "name": "GMT Grand Park No. 196, Jawaharlal Nehru Salai 100 Feet Road, . Koyambedu Mofussil Bus Stand Chennai",
    "lat": 13.0676507,
    "lng": 80.2092024
  },
  {
    "name": "GMT Grand Park No. 196, Jawaharlal Nehru Salai 100 Feet Road, . Koyambedu Mofussil Bus Stand Chennai",
    "lat": 13.0676507,
    "lng": 80.2092024
  },
  {
    "name": "GMT Grand Park No. 196, Jawaharlal Nehru Salai 100 Feet Road, . Koyambedu Mofussil Bus Stand Chennai",
    "lat": 13.0676507,
    "lng": 80.2092024
  },
  {
    "name": "GMT Grand Park No. 196, Jawaharlal Nehru Salai 100 Feet Road, . Koyambedu Mofussil Bus Stand Chennai",
    "lat": 13.0676507,
    "lng": 80.2092024
  },
  {
    "name": "GMT Grand Park No. 196, Jawaharlal Nehru Salai 100 Feet Road, . Koyambedu Mofussil Bus Stand Chennai",
    "lat": 13.0676507,
    "lng": 80.2092024
  },
  {
    "name": "Arya bhavan 37F5+W3H, Egmore, Chennai, Tamil\u00c3\u0192\u00e2\u20ac\u0161 Nadu\u00c3\u0192\u00e2\u20ac\u0161",
    "lat": 13.0748125,
    "lng": 80.2577344
  },
  {
    "name": "Arya bhavan 37F5+W3H, Egmore, Chennai, Tamil\u00c3\u0192\u00e2\u20ac\u0161 Nadu\u00c3\u0192\u00e2\u20ac\u0161",
    "lat": 13.0748125,
    "lng": 80.2577344
  },
  {
    "name": "Arya bhavan 37F5+W3H, Egmore, Chennai, Tamil\u00c3\u0192\u00e2\u20ac\u0161 Nadu\u00c3\u0192\u00e2\u20ac\u0161",
    "lat": 13.0748125,
    "lng": 80.2577344
  },
  {
    "name": "Arya bhavan 37F5+W3H, Egmore, Chennai, Tamil\u00c3\u0192\u00e2\u20ac\u0161 Nadu\u00c3\u0192\u00e2\u20ac\u0161",
    "lat": 13.0748125,
    "lng": 80.2577344
  },
  {
    "name": "Arya bhavan 37F5+W3H, Egmore, Chennai, Tamil\u00c3\u0192\u00e2\u20ac\u0161 Nadu\u00c3\u0192\u00e2\u20ac\u0161",
    "lat": 13.0748125,
    "lng": 80.2577344
  },
  {
    "name": "Hotel Aum Poonamalee High Road Chennai",
    "lat": 13.0674988,
    "lng": 80.1780084
  },
  {
    "name": "Hotel Aum Poonamalee High Road Chennai",
    "lat": 13.0674988,
    "lng": 80.1780084
  },
  {
    "name": "Hotel Aum Poonamalee High Road Chennai",
    "lat": 13.0674988,
    "lng": 80.1780084
  },
  {
    "name": "Hotel Aum Poonamalee High Road Chennai",
    "lat": 13.0674988,
    "lng": 80.1780084
  },
  {
    "name": "Hotel Aum Poonamalee High Road Chennai",
    "lat": 13.0674988,
    "lng": 80.1780084
  },
  {
    "name": "Oyo 86851 Hotel Delmon Residency Central Chennai",
    "lat": 13.0843007,
    "lng": 80.2704622
  },
  {
    "name": "Oyo 86851 Hotel Delmon Residency Central Chennai",
    "lat": 13.0843007,
    "lng": 80.2704622
  },
  {
    "name": "Oyo 86851 Hotel Delmon Residency Central Chennai",
    "lat": 13.0843007,
    "lng": 80.2704622
  },
  {
    "name": "Oyo 86851 Hotel Delmon Residency Central Chennai",
    "lat": 13.0843007,
    "lng": 80.2704622
  },
  {
    "name": "Oyo 86851 Hotel Delmon Residency Central Chennai",
    "lat": 13.0843007,
    "lng": 80.2704622
  },
  {
    "name": "Hotel Sunpark Hotel Sunpark Inn Poongavanapuram, No 18 cuddappa, rangiah street, Periamet, Park Tow Chennai",
    "lat": 13.0816561,
    "lng": 80.2679633
  },
  {
    "name": "Hotel Sunpark Hotel Sunpark Inn Poongavanapuram, No 18 cuddappa, rangiah street, Periamet, Park Tow Chennai",
    "lat": 13.0816561,
    "lng": 80.2679633
  },
  {
    "name": "Hotel Sunpark Hotel Sunpark Inn Poongavanapuram, No 18 cuddappa, rangiah street, Periamet, Park Tow Chennai",
    "lat": 13.0816561,
    "lng": 80.2679633
  },
  {
    "name": "Hotel Sunpark Hotel Sunpark Inn Poongavanapuram, No 18 cuddappa, rangiah street, Periamet, Park Tow Chennai",
    "lat": 13.0816561,
    "lng": 80.2679633
  },
  {
    "name": "Hotel Sunpark Hotel Sunpark Inn Poongavanapuram, No 18 cuddappa, rangiah street, Periamet, Park Tow Chennai",
    "lat": 13.0816561,
    "lng": 80.2679633
  },
  {
    "name": "Hotel Jayam Residency Perimet Chennai",
    "lat": 13.082975,
    "lng": 80.2696778
  },
  {
    "name": "Hotel Jayam Residency Perimet Chennai",
    "lat": 13.082975,
    "lng": 80.2696778
  },
  {
    "name": "Hotel Jayam Residency Perimet Chennai",
    "lat": 13.082975,
    "lng": 80.2696778
  },
  {
    "name": "Hotel Jayam Residency Perimet Chennai",
    "lat": 13.082975,
    "lng": 80.2696778
  },
  {
    "name": "Hotel Jayam Residency Perimet Chennai",
    "lat": 13.082975,
    "lng": 80.2696778
  },
  {
    "name": "Suncity 16/1, Bommu chetty street, Edapalaiyam, George Town, Chennai, Tamil Nadu",
    "lat": 13.0856055,
    "lng": 80.2761716
  },
  {
    "name": "Suncity 16/1, Bommu chetty street, Edapalaiyam, George Town, Chennai, Tamil Nadu",
    "lat": 13.0856055,
    "lng": 80.2761716
  },
  {
    "name": "Suncity 16/1, Bommu chetty street, Edapalaiyam, George Town, Chennai, Tamil Nadu",
    "lat": 13.0856055,
    "lng": 80.2761716
  },
  {
    "name": "Suncity 16/1, Bommu chetty street, Edapalaiyam, George Town, Chennai, Tamil Nadu",
    "lat": 13.0856055,
    "lng": 80.2761716
  },
  {
    "name": "Suncity 16/1, Bommu chetty street, Edapalaiyam, George Town, Chennai, Tamil Nadu",
    "lat": 13.0856055,
    "lng": 80.2761716
  },
  {
    "name": "Hotel Comfort Triplicane Chennai",
    "lat": 13.0631313,
    "lng": 80.2739035
  },
  {
    "name": "Hotel Comfort Triplicane Chennai",
    "lat": 13.0631313,
    "lng": 80.2739035
  },
  {
    "name": "Hotel Comfort Triplicane Chennai",
    "lat": 13.0631313,
    "lng": 80.2739035
  },
  {
    "name": "Hotel Comfort Triplicane Chennai",
    "lat": 13.0631313,
    "lng": 80.2739035
  },
  {
    "name": "Hotel Comfort Triplicane Chennai",
    "lat": 13.0631313,
    "lng": 80.2739035
  },
  {
    "name": "KTDC Rain Drops 169/2, Greams Rd, Thousand Lights West, Thousand Lights, Chennai, Tamil Nadu",
    "lat": 13.0621112,
    "lng": 80.2542693
  },
  {
    "name": "KTDC Rain Drops 169/2, Greams Rd, Thousand Lights West, Thousand Lights, Chennai, Tamil Nadu",
    "lat": 13.0621112,
    "lng": 80.2542693
  },
  {
    "name": "KTDC Rain Drops 169/2, Greams Rd, Thousand Lights West, Thousand Lights, Chennai, Tamil Nadu",
    "lat": 13.0621112,
    "lng": 80.2542693
  },
  {
    "name": "KTDC Rain Drops 169/2, Greams Rd, Thousand Lights West, Thousand Lights, Chennai, Tamil Nadu",
    "lat": 13.0621112,
    "lng": 80.2542693
  },
  {
    "name": "KTDC Rain Drops 169/2, Greams Rd, Thousand Lights West, Thousand Lights, Chennai, Tamil Nadu",
    "lat": 13.0621112,
    "lng": 80.2542693
  },
  {
    "name": "Silverkey Executive Stays 20018 D Square Omr OMR Chennai",
    "lat": 12.8283155,
    "lng": 80.2310558
  },
  {
    "name": "Silverkey Executive Stays 20018 D Square Omr OMR Chennai",
    "lat": 12.8283155,
    "lng": 80.2310558
  },
  {
    "name": "Silverkey Executive Stays 20018 D Square Omr OMR Chennai",
    "lat": 12.8283155,
    "lng": 80.2310558
  },
  {
    "name": "Silverkey Executive Stays 20018 D Square Omr OMR Chennai",
    "lat": 12.8283155,
    "lng": 80.2310558
  },
  {
    "name": "Silverkey Executive Stays 20018 D Square Omr OMR Chennai",
    "lat": 12.8283155,
    "lng": 80.2310558
  },
  {
    "name": "Silverkey Executive Stays 20018 D Square Omr OMR Chennai",
    "lat": 12.8283155,
    "lng": 80.2310558
  },
  {
    "name": "Oyo 80158 Mts Guest House OMR Chennai",
    "lat": 12.9529043,
    "lng": 80.2419108
  },
  {
    "name": "Oyo 80158 Mts Guest House OMR Chennai",
    "lat": 12.9529043,
    "lng": 80.2419108
  },
  {
    "name": "Oyo 80158 Mts Guest House OMR Chennai",
    "lat": 12.9529043,
    "lng": 80.2419108
  },
  {
    "name": "Oyo 80158 Mts Guest House OMR Chennai",
    "lat": 12.9529043,
    "lng": 80.2419108
  },
  {
    "name": "Oyo 80158 Mts Guest House OMR Chennai",
    "lat": 12.9529043,
    "lng": 80.2419108
  },
  {
    "name": "Oyo 80158 Mts Guest House OMR Chennai",
    "lat": 12.9529043,
    "lng": 80.2419108
  },
  {
    "name": "Olive Inn Serviced Apartments No.72 & 73, 2nd Main Rd, Phase2, Thirumalai Nagar Annexe, Perungudi Chennai",
    "lat": 12.9588903,
    "lng": 80.2430567
  },
  {
    "name": "Olive Inn Serviced Apartments No.72 & 73, 2nd Main Rd, Phase2, Thirumalai Nagar Annexe, Perungudi Chennai",
    "lat": 12.9588903,
    "lng": 80.2430567
  },
  {
    "name": "Olive Inn Serviced Apartments No.72 & 73, 2nd Main Rd, Phase2, Thirumalai Nagar Annexe, Perungudi Chennai",
    "lat": 12.9588903,
    "lng": 80.2430567
  },
  {
    "name": "Olive Inn Serviced Apartments No.72 & 73, 2nd Main Rd, Phase2, Thirumalai Nagar Annexe, Perungudi Chennai",
    "lat": 12.9588903,
    "lng": 80.2430567
  },
  {
    "name": "Olive Inn Serviced Apartments No.72 & 73, 2nd Main Rd, Phase2, Thirumalai Nagar Annexe, Perungudi Chennai",
    "lat": 12.9588903,
    "lng": 80.2430567
  },
  {
    "name": "Olive Inn Serviced Apartments No.72 & 73, 2nd Main Rd, Phase2, Thirumalai Nagar Annexe, Perungudi Chennai",
    "lat": 12.9588903,
    "lng": 80.2430567
  },
  {
    "name": "The Westin Chennai Velachery",
    "lat": 12.9893786,
    "lng": 80.2208854
  },
  {
    "name": "The Westin Chennai Velachery",
    "lat": 12.9893786,
    "lng": 80.2208854
  },
  {
    "name": "The Westin Chennai Velachery",
    "lat": 12.9893786,
    "lng": 80.2208854
  },
  {
    "name": "The Westin Chennai Velachery",
    "lat": 12.9893786,
    "lng": 80.2208854
  },
  {
    "name": "The Westin Chennai Velachery",
    "lat": 12.9893786,
    "lng": 80.2208854
  },
  {
    "name": "The Westin Chennai Velachery",
    "lat": 12.9893786,
    "lng": 80.2208854
  },
  {
    "name": "Hotel Mount Manor No. 14, G.S.T. Road . Officers Training Academy, St. Thomas Mount, Chennai",
    "lat": 12.9987021,
    "lng": 80.1928247
  },
  {
    "name": "Hotel Mount Manor No. 14, G.S.T. Road . Officers Training Academy, St. Thomas Mount, Chennai",
    "lat": 12.9987021,
    "lng": 80.1928247
  },
  {
    "name": "Hotel Mount Manor No. 14, G.S.T. Road . Officers Training Academy, St. Thomas Mount, Chennai",
    "lat": 12.9987021,
    "lng": 80.1928247
  },
  {
    "name": "Hotel Mount Manor No. 14, G.S.T. Road . Officers Training Academy, St. Thomas Mount, Chennai",
    "lat": 12.9987021,
    "lng": 80.1928247
  },
  {
    "name": "Hotel Mount Manor No. 14, G.S.T. Road . Officers Training Academy, St. Thomas Mount, Chennai",
    "lat": 12.9987021,
    "lng": 80.1928247
  },
  {
    "name": "Hotel Mount Manor No. 14, G.S.T. Road . Officers Training Academy, St. Thomas Mount, Chennai",
    "lat": 12.9987021,
    "lng": 80.1928247
  },
  {
    "name": "Lemon Tree Hotel, Chennai 72, Sardar Patel Rd, Venkta Puram, Guindy, Chennai, Tamil Nadu",
    "lat": 13.0111566,
    "lng": 80.2246885
  },
  {
    "name": "Lemon Tree Hotel, Chennai 72, Sardar Patel Rd, Venkta Puram, Guindy, Chennai, Tamil Nadu",
    "lat": 13.0111566,
    "lng": 80.2246885
  },
  {
    "name": "Lemon Tree Hotel, Chennai 72, Sardar Patel Rd, Venkta Puram, Guindy, Chennai, Tamil Nadu",
    "lat": 13.0111566,
    "lng": 80.2246885
  },
  {
    "name": "Lemon Tree Hotel, Chennai 72, Sardar Patel Rd, Venkta Puram, Guindy, Chennai, Tamil Nadu",
    "lat": 13.0111566,
    "lng": 80.2246885
  },
  {
    "name": "Lemon Tree Hotel, Chennai 72, Sardar Patel Rd, Venkta Puram, Guindy, Chennai, Tamil Nadu",
    "lat": 13.0111566,
    "lng": 80.2246885
  },
  {
    "name": "Lemon Tree Hotel, Chennai 72, Sardar Patel Rd, Venkta Puram, Guindy, Chennai, Tamil Nadu",
    "lat": 13.0111566,
    "lng": 80.2246885
  },
  {
    "name": "Devs Palace Poomagal 3 Street, Ekkatuthangal, Chennai \u00c3\u0192\u00c2\u00a2\u00c3\u00a2\u00e2\u20ac\u0161\u00c2\u00ac\u00c3\u00a2\u00e2\u201a\u00ac\u00c5\u201c, Tamil Nadu, India",
    "lat": 13.0160302,
    "lng": 80.2037226
  },
  {
    "name": "Devs Palace Poomagal 3 Street, Ekkatuthangal, Chennai \u00c3\u0192\u00c2\u00a2\u00c3\u00a2\u00e2\u20ac\u0161\u00c2\u00ac\u00c3\u00a2\u00e2\u201a\u00ac\u00c5\u201c, Tamil Nadu, India",
    "lat": 13.0160302,
    "lng": 80.2037226
  },
  {
    "name": "Devs Palace Poomagal 3 Street, Ekkatuthangal, Chennai \u00c3\u0192\u00c2\u00a2\u00c3\u00a2\u00e2\u20ac\u0161\u00c2\u00ac\u00c3\u00a2\u00e2\u201a\u00ac\u00c5\u201c, Tamil Nadu, India",
    "lat": 13.0160302,
    "lng": 80.2037226
  },
  {
    "name": "Devs Palace Poomagal 3 Street, Ekkatuthangal, Chennai \u00c3\u0192\u00c2\u00a2\u00c3\u00a2\u00e2\u20ac\u0161\u00c2\u00ac\u00c3\u00a2\u00e2\u201a\u00ac\u00c5\u201c, Tamil Nadu, India",
    "lat": 13.0160302,
    "lng": 80.2037226
  },
  {
    "name": "Devs Palace Poomagal 3 Street, Ekkatuthangal, Chennai \u00c3\u0192\u00c2\u00a2\u00c3\u00a2\u00e2\u20ac\u0161\u00c2\u00ac\u00c3\u00a2\u00e2\u201a\u00ac\u00c5\u201c, Tamil Nadu, India",
    "lat": 13.0160302,
    "lng": 80.2037226
  },
  {
    "name": "Devs Palace Poomagal 3 Street, Ekkatuthangal, Chennai \u00c3\u0192\u00c2\u00a2\u00c3\u00a2\u00e2\u20ac\u0161\u00c2\u00ac\u00c3\u00a2\u00e2\u201a\u00ac\u00c5\u201c, Tamil Nadu, India",
    "lat": 13.0160302,
    "lng": 80.2037226
  },
  {
    "name": "Layalee Grande Hotel Chennai 12A, Jawaharlal Nehru Salai, . Jaya TV Office, Thiru Vi Ka Industri",
    "lat": 13.0242004,
    "lng": 80.2071221
  },
  {
    "name": "Layalee Grande Hotel Chennai 12A, Jawaharlal Nehru Salai, . Jaya TV Office, Thiru Vi Ka Industri",
    "lat": 13.0242004,
    "lng": 80.2071221
  },
  {
    "name": "Layalee Grande Hotel Chennai 12A, Jawaharlal Nehru Salai, . Jaya TV Office, Thiru Vi Ka Industri",
    "lat": 13.0242004,
    "lng": 80.2071221
  },
  {
    "name": "Layalee Grande Hotel Chennai 12A, Jawaharlal Nehru Salai, . Jaya TV Office, Thiru Vi Ka Industri",
    "lat": 13.0242004,
    "lng": 80.2071221
  },
  {
    "name": "Layalee Grande Hotel Chennai 12A, Jawaharlal Nehru Salai, . Jaya TV Office, Thiru Vi Ka Industri",
    "lat": 13.0242004,
    "lng": 80.2071221
  },
  {
    "name": "Layalee Grande Hotel Chennai 12A, Jawaharlal Nehru Salai, . Jaya TV Office, Thiru Vi Ka Industri",
    "lat": 13.0242004,
    "lng": 80.2071221
  },
  {
    "name": "Kuber Inn Economy 8, Duraiswamy Rd, T. Nagar, Chennai, Tamil Nadu",
    "lat": 13.0408644,
    "lng": 80.231158
  },
  {
    "name": "Kuber Inn Economy 8, Duraiswamy Rd, T. Nagar, Chennai, Tamil Nadu",
    "lat": 13.0408644,
    "lng": 80.231158
  },
  {
    "name": "Kuber Inn Economy 8, Duraiswamy Rd, T. Nagar, Chennai, Tamil Nadu",
    "lat": 13.0408644,
    "lng": 80.231158
  },
  {
    "name": "Kuber Inn Economy 8, Duraiswamy Rd, T. Nagar, Chennai, Tamil Nadu",
    "lat": 13.0408644,
    "lng": 80.231158
  },
  {
    "name": "Kuber Inn Economy 8, Duraiswamy Rd, T. Nagar, Chennai, Tamil Nadu",
    "lat": 13.0408644,
    "lng": 80.231158
  },
  {
    "name": "Kuber Inn Economy 8, Duraiswamy Rd, T. Nagar, Chennai, Tamil Nadu",
    "lat": 13.0408644,
    "lng": 80.231158
  },
  {
    "name": "super townhouse t nagar 16, Raja Bather St, Parthasarathi Puram, T. Nagar, Chennai, Tamil Nadu 6000",
    "lat": 13.0410682,
    "lng": 80.2390738
  },
  {
    "name": "super townhouse t nagar 16, Raja Bather St, Parthasarathi Puram, T. Nagar, Chennai, Tamil Nadu 6000",
    "lat": 13.0410682,
    "lng": 80.2390738
  },
  {
    "name": "super townhouse t nagar 16, Raja Bather St, Parthasarathi Puram, T. Nagar, Chennai, Tamil Nadu 6000",
    "lat": 13.0410682,
    "lng": 80.2390738
  },
  {
    "name": "super townhouse t nagar 16, Raja Bather St, Parthasarathi Puram, T. Nagar, Chennai, Tamil Nadu 6000",
    "lat": 13.0410682,
    "lng": 80.2390738
  },
  {
    "name": "super townhouse t nagar 16, Raja Bather St, Parthasarathi Puram, T. Nagar, Chennai, Tamil Nadu 6000",
    "lat": 13.0410682,
    "lng": 80.2390738
  },
  {
    "name": "super townhouse t nagar 16, Raja Bather St, Parthasarathi Puram, T. Nagar, Chennai, Tamil Nadu 6000",
    "lat": 13.0410682,
    "lng": 80.2390738
  },
  {
    "name": "super hotel o g sliver o8, 37, 2nd Avenue, CMWSSB Division 132 Ward 132, Zone 10 Kodambakkam Chennai",
    "lat": 13.1302111,
    "lng": 80.2255332
  },
  {
    "name": "super hotel o g sliver o8, 37, 2nd Avenue, CMWSSB Division 132 Ward 132, Zone 10 Kodambakkam Chennai",
    "lat": 13.1302111,
    "lng": 80.2255332
  },
  {
    "name": "super hotel o g sliver o8, 37, 2nd Avenue, CMWSSB Division 132 Ward 132, Zone 10 Kodambakkam Chennai",
    "lat": 13.1302111,
    "lng": 80.2255332
  },
  {
    "name": "super hotel o g sliver o8, 37, 2nd Avenue, CMWSSB Division 132 Ward 132, Zone 10 Kodambakkam Chennai",
    "lat": 13.1302111,
    "lng": 80.2255332
  },
  {
    "name": "super hotel o g sliver o8, 37, 2nd Avenue, CMWSSB Division 132 Ward 132, Zone 10 Kodambakkam Chennai",
    "lat": 13.1302111,
    "lng": 80.2255332
  },
  {
    "name": "super hotel o g sliver o8, 37, 2nd Avenue, CMWSSB Division 132 Ward 132, Zone 10 Kodambakkam Chennai",
    "lat": 13.1302111,
    "lng": 80.2255332
  },
  {
    "name": "ar residency 5 TH, MAIN ROAD TNAGAR CHENNAI ",
    "lat": 13.0310362,
    "lng": 80.2366574
  },
  {
    "name": "ar residency 5 TH, MAIN ROAD TNAGAR CHENNAI ",
    "lat": 13.0310362,
    "lng": 80.2366574
  },
  {
    "name": "ar residency 5 TH, MAIN ROAD TNAGAR CHENNAI ",
    "lat": 13.0310362,
    "lng": 80.2366574
  },
  {
    "name": "ar residency 5 TH, MAIN ROAD TNAGAR CHENNAI ",
    "lat": 13.0310362,
    "lng": 80.2366574
  },
  {
    "name": "ar residency 5 TH, MAIN ROAD TNAGAR CHENNAI ",
    "lat": 13.0310362,
    "lng": 80.2366574
  },
  {
    "name": "ar residency 5 TH, MAIN ROAD TNAGAR CHENNAI ",
    "lat": 13.0310362,
    "lng": 80.2366574
  },
  {
    "name": "cosmo grande 4, Chengaraju Street, Vadapalani, Chennai, Tamil Nadu",
    "lat": 13.0493409,
    "lng": 80.2043784
  },
  {
    "name": "cosmo grande 4, Chengaraju Street, Vadapalani, Chennai, Tamil Nadu",
    "lat": 13.0493409,
    "lng": 80.2043784
  },
  {
    "name": "cosmo grande 4, Chengaraju Street, Vadapalani, Chennai, Tamil Nadu",
    "lat": 13.0493409,
    "lng": 80.2043784
  },
  {
    "name": "cosmo grande 4, Chengaraju Street, Vadapalani, Chennai, Tamil Nadu",
    "lat": 13.0493409,
    "lng": 80.2043784
  },
  {
    "name": "cosmo grande 4, Chengaraju Street, Vadapalani, Chennai, Tamil Nadu",
    "lat": 13.0493409,
    "lng": 80.2043784
  },
  {
    "name": "cosmo grande 4, Chengaraju Street, Vadapalani, Chennai, Tamil Nadu",
    "lat": 13.0493409,
    "lng": 80.2043784
  },
  {
    "name": "Super Townhouse Oak Kodambakkam Formerly Cine City Plot Number 28, 1st Main Rd, Chennai",
    "lat": 13.0510009,
    "lng": 80.227139
  },
  {
    "name": "Super Townhouse Oak Kodambakkam Formerly Cine City Plot Number 28, 1st Main Rd, Chennai",
    "lat": 13.0510009,
    "lng": 80.227139
  },
  {
    "name": "Super Townhouse Oak Kodambakkam Formerly Cine City Plot Number 28, 1st Main Rd, Chennai",
    "lat": 13.0510009,
    "lng": 80.227139
  },
  {
    "name": "Super Townhouse Oak Kodambakkam Formerly Cine City Plot Number 28, 1st Main Rd, Chennai",
    "lat": 13.0510009,
    "lng": 80.227139
  },
  {
    "name": "Super Townhouse Oak Kodambakkam Formerly Cine City Plot Number 28, 1st Main Rd, Chennai",
    "lat": 13.0510009,
    "lng": 80.227139
  },
  {
    "name": "Super Townhouse Oak Kodambakkam Formerly Cine City Plot Number 28, 1st Main Rd, Chennai",
    "lat": 13.0510009,
    "lng": 80.227139
  },
  {
    "name": "JAAG HOTEL 41, Periyar Rd, Porur Sundaram St, T. Nagar, Chennai, Tamil Nadu, India",
    "lat": 13.0525779,
    "lng": 80.235697
  },
  {
    "name": "JAAG HOTEL 41, Periyar Rd, Porur Sundaram St, T. Nagar, Chennai, Tamil Nadu, India",
    "lat": 13.0525779,
    "lng": 80.235697
  },
  {
    "name": "JAAG HOTEL 41, Periyar Rd, Porur Sundaram St, T. Nagar, Chennai, Tamil Nadu, India",
    "lat": 13.0525779,
    "lng": 80.235697
  },
  {
    "name": "JAAG HOTEL 41, Periyar Rd, Porur Sundaram St, T. Nagar, Chennai, Tamil Nadu, India",
    "lat": 13.0525779,
    "lng": 80.235697
  },
  {
    "name": "JAAG HOTEL 41, Periyar Rd, Porur Sundaram St, T. Nagar, Chennai, Tamil Nadu, India",
    "lat": 13.0525779,
    "lng": 80.235697
  },
  {
    "name": "JAAG HOTEL 41, Periyar Rd, Porur Sundaram St, T. Nagar, Chennai, Tamil Nadu, India",
    "lat": 13.0525779,
    "lng": 80.235697
  },
  {
    "name": "Sindoori Residency. 21, N 42, Mackeys Garden, Greams Road, osite Apollo Heart Centre, Chennai",
    "lat": 13.0843007,
    "lng": 80.2704622
  },
  {
    "name": "Sindoori Residency. 21, N 42, Mackeys Garden, Greams Road, osite Apollo Heart Centre, Chennai",
    "lat": 13.0843007,
    "lng": 80.2704622
  },
  {
    "name": "Sindoori Residency. 21, N 42, Mackeys Garden, Greams Road, osite Apollo Heart Centre, Chennai",
    "lat": 13.0843007,
    "lng": 80.2704622
  },
  {
    "name": "Sindoori Residency. 21, N 42, Mackeys Garden, Greams Road, osite Apollo Heart Centre, Chennai",
    "lat": 13.0843007,
    "lng": 80.2704622
  },
  {
    "name": "Sindoori Residency. 21, N 42, Mackeys Garden, Greams Road, osite Apollo Heart Centre, Chennai",
    "lat": 13.0843007,
    "lng": 80.2704622
  },
  {
    "name": "Sindoori Residency. 21, N 42, Mackeys Garden, Greams Road, osite Apollo Heart Centre, Chennai",
    "lat": 13.0843007,
    "lng": 80.2704622
  },
  {
    "name": "Care Stays 147, Greams Road, Chennai",
    "lat": 13.0580163,
    "lng": 80.2544614
  },
  {
    "name": "Care Stays 147, Greams Road, Chennai",
    "lat": 13.0580163,
    "lng": 80.2544614
  },
  {
    "name": "Care Stays 147, Greams Road, Chennai",
    "lat": 13.0580163,
    "lng": 80.2544614
  },
  {
    "name": "Care Stays 147, Greams Road, Chennai",
    "lat": 13.0580163,
    "lng": 80.2544614
  },
  {
    "name": "Care Stays 147, Greams Road, Chennai",
    "lat": 13.0580163,
    "lng": 80.2544614
  },
  {
    "name": "Care Stays 147, Greams Road, Chennai",
    "lat": 13.0580163,
    "lng": 80.2544614
  },
  {
    "name": "Fusion Service Apartment 29, Ambrosia Apartment, , 2, Behind Apollo Hospital Chennai",
    "lat": 13.063125,
    "lng": 80.2506384
  },
  {
    "name": "Fusion Service Apartment 29, Ambrosia Apartment, , 2, Behind Apollo Hospital Chennai",
    "lat": 13.063125,
    "lng": 80.2506384
  },
  {
    "name": "Fusion Service Apartment 29, Ambrosia Apartment, , 2, Behind Apollo Hospital Chennai",
    "lat": 13.063125,
    "lng": 80.2506384
  },
  {
    "name": "Fusion Service Apartment 29, Ambrosia Apartment, , 2, Behind Apollo Hospital Chennai",
    "lat": 13.063125,
    "lng": 80.2506384
  },
  {
    "name": "Fusion Service Apartment 29, Ambrosia Apartment, , 2, Behind Apollo Hospital Chennai",
    "lat": 13.063125,
    "lng": 80.2506384
  },
  {
    "name": "Fusion Service Apartment 29, Ambrosia Apartment, , 2, Behind Apollo Hospital Chennai",
    "lat": 13.063125,
    "lng": 80.2506384
  },
  {
    "name": "Bells Grand Inn 194/10, Bells Road, Triplicane Chepauk, Chennai \u00c3\u0192\u00c2\u00a2\u00c3\u00a2\u00e2\u20ac\u0161\u00c2\u00ac\u00c3\u00a2\u00e2\u201a\u00ac\u00c5\u201c",
    "lat": 13.0643773,
    "lng": 80.2780847
  },
  {
    "name": "Bells Grand Inn 194/10, Bells Road, Triplicane Chepauk, Chennai \u00c3\u0192\u00c2\u00a2\u00c3\u00a2\u00e2\u20ac\u0161\u00c2\u00ac\u00c3\u00a2\u00e2\u201a\u00ac\u00c5\u201c",
    "lat": 13.0643773,
    "lng": 80.2780847
  },
  {
    "name": "Bells Grand Inn 194/10, Bells Road, Triplicane Chepauk, Chennai \u00c3\u0192\u00c2\u00a2\u00c3\u00a2\u00e2\u20ac\u0161\u00c2\u00ac\u00c3\u00a2\u00e2\u201a\u00ac\u00c5\u201c",
    "lat": 13.0643773,
    "lng": 80.2780847
  },
  {
    "name": "Bells Grand Inn 194/10, Bells Road, Triplicane Chepauk, Chennai \u00c3\u0192\u00c2\u00a2\u00c3\u00a2\u00e2\u20ac\u0161\u00c2\u00ac\u00c3\u00a2\u00e2\u201a\u00ac\u00c5\u201c",
    "lat": 13.0643773,
    "lng": 80.2780847
  },
  {
    "name": "Bells Grand Inn 194/10, Bells Road, Triplicane Chepauk, Chennai \u00c3\u0192\u00c2\u00a2\u00c3\u00a2\u00e2\u20ac\u0161\u00c2\u00ac\u00c3\u00a2\u00e2\u201a\u00ac\u00c5\u201c",
    "lat": 13.0643773,
    "lng": 80.2780847
  },
  {
    "name": "Bells Grand Inn 194/10, Bells Road, Triplicane Chepauk, Chennai \u00c3\u0192\u00c2\u00a2\u00c3\u00a2\u00e2\u20ac\u0161\u00c2\u00ac\u00c3\u00a2\u00e2\u201a\u00ac\u00c5\u201c",
    "lat": 13.0643773,
    "lng": 80.2780847
  },
  {
    "name": "JP Hotel Chennai 1131, Jawaharlal Nehru Salai, Jai Nagar, Koyambedu, Chennai, Tamil Nadu",
    "lat": 13.071056,
    "lng": 80.204564
  },
  {
    "name": "JP Hotel Chennai 1131, Jawaharlal Nehru Salai, Jai Nagar, Koyambedu, Chennai, Tamil Nadu",
    "lat": 13.071056,
    "lng": 80.204564
  },
  {
    "name": "JP Hotel Chennai 1131, Jawaharlal Nehru Salai, Jai Nagar, Koyambedu, Chennai, Tamil Nadu",
    "lat": 13.071056,
    "lng": 80.204564
  },
  {
    "name": "JP Hotel Chennai 1131, Jawaharlal Nehru Salai, Jai Nagar, Koyambedu, Chennai, Tamil Nadu",
    "lat": 13.071056,
    "lng": 80.204564
  },
  {
    "name": "JP Hotel Chennai 1131, Jawaharlal Nehru Salai, Jai Nagar, Koyambedu, Chennai, Tamil Nadu",
    "lat": 13.071056,
    "lng": 80.204564
  },
  {
    "name": "JP Hotel Chennai 1131, Jawaharlal Nehru Salai, Jai Nagar, Koyambedu, Chennai, Tamil Nadu",
    "lat": 13.071056,
    "lng": 80.204564
  },
  {
    "name": "Hotel O Everest Hotel O Everest Hotel, 23, Poonamallee High Rd, . Sub Registrar Office, Periamet Chennai",
    "lat": 13.0807579,
    "lng": 80.2688169
  },
  {
    "name": "Hotel O Everest Hotel O Everest Hotel, 23, Poonamallee High Rd, . Sub Registrar Office, Periamet Chennai",
    "lat": 13.0807579,
    "lng": 80.2688169
  },
  {
    "name": "Hotel O Everest Hotel O Everest Hotel, 23, Poonamallee High Rd, . Sub Registrar Office, Periamet Chennai",
    "lat": 13.0807579,
    "lng": 80.2688169
  },
  {
    "name": "Hotel O Everest Hotel O Everest Hotel, 23, Poonamallee High Rd, . Sub Registrar Office, Periamet Chennai",
    "lat": 13.0807579,
    "lng": 80.2688169
  },
  {
    "name": "Hotel O Everest Hotel O Everest Hotel, 23, Poonamallee High Rd, . Sub Registrar Office, Periamet Chennai",
    "lat": 13.0807579,
    "lng": 80.2688169
  },
  {
    "name": "Hotel O Everest Hotel O Everest Hotel, 23, Poonamallee High Rd, . Sub Registrar Office, Periamet Chennai",
    "lat": 13.0807579,
    "lng": 80.2688169
  },
  {
    "name": "The Park Avenue Nabikhan, Shaik Ali Subedar St, Periamet, Park Town, Chennai, Tamil Nadu",
    "lat": 13.0839954,
    "lng": 80.2702419
  },
  {
    "name": "The Park Avenue Nabikhan, Shaik Ali Subedar St, Periamet, Park Town, Chennai, Tamil Nadu",
    "lat": 13.0839954,
    "lng": 80.2702419
  },
  {
    "name": "The Park Avenue Nabikhan, Shaik Ali Subedar St, Periamet, Park Town, Chennai, Tamil Nadu",
    "lat": 13.0839954,
    "lng": 80.2702419
  },
  {
    "name": "The Park Avenue Nabikhan, Shaik Ali Subedar St, Periamet, Park Town, Chennai, Tamil Nadu",
    "lat": 13.0839954,
    "lng": 80.2702419
  },
  {
    "name": "The Park Avenue Nabikhan, Shaik Ali Subedar St, Periamet, Park Town, Chennai, Tamil Nadu",
    "lat": 13.0839954,
    "lng": 80.2702419
  },
  {
    "name": "The Park Avenue Nabikhan, Shaik Ali Subedar St, Periamet, Park Town, Chennai, Tamil Nadu",
    "lat": 13.0839954,
    "lng": 80.2702419
  },
  {
    "name": "og inn Rooms B 9, 2nd Ave, Max showroom, A, Shanthi Colony, Anna Nagar, Chennai",
    "lat": 13.0845117,
    "lng": 80.2140206
  },
  {
    "name": "og inn Rooms B 9, 2nd Ave, Max showroom, A, Shanthi Colony, Anna Nagar, Chennai",
    "lat": 13.0845117,
    "lng": 80.2140206
  },
  {
    "name": "og inn Rooms B 9, 2nd Ave, Max showroom, A, Shanthi Colony, Anna Nagar, Chennai",
    "lat": 13.0845117,
    "lng": 80.2140206
  },
  {
    "name": "og inn Rooms B 9, 2nd Ave, Max showroom, A, Shanthi Colony, Anna Nagar, Chennai",
    "lat": 13.0845117,
    "lng": 80.2140206
  },
  {
    "name": "og inn Rooms B 9, 2nd Ave, Max showroom, A, Shanthi Colony, Anna Nagar, Chennai",
    "lat": 13.0845117,
    "lng": 80.2140206
  },
  {
    "name": "og inn Rooms B 9, 2nd Ave, Max showroom, A, Shanthi Colony, Anna Nagar, Chennai",
    "lat": 13.0845117,
    "lng": 80.2140206
  },
  {
    "name": "Hotel L. J Guest House Parrys Area Chennai",
    "lat": 13.0889984,
    "lng": 80.2852654
  },
  {
    "name": "Hotel L. J Guest House Parrys Area Chennai",
    "lat": 13.0889984,
    "lng": 80.2852654
  },
  {
    "name": "Hotel L. J Guest House Parrys Area Chennai",
    "lat": 13.0889984,
    "lng": 80.2852654
  },
  {
    "name": "Hotel L. J Guest House Parrys Area Chennai",
    "lat": 13.0889984,
    "lng": 80.2852654
  },
  {
    "name": "Hotel L. J Guest House Parrys Area Chennai",
    "lat": 13.0889984,
    "lng": 80.2852654
  },
  {
    "name": "Hotel L. J Guest House Parrys Area Chennai",
    "lat": 13.0889984,
    "lng": 80.2852654
  },
  {
    "name": "Jemi guest house No.?6, Umpherson Street, Chennai",
    "lat": 13.0895363,
    "lng": 80.2848827
  },
  {
    "name": "Jemi guest house No.?6, Umpherson Street, Chennai",
    "lat": 13.0895363,
    "lng": 80.2848827
  },
  {
    "name": "Jemi guest house No.?6, Umpherson Street, Chennai",
    "lat": 13.0895363,
    "lng": 80.2848827
  },
  {
    "name": "Jemi guest house No.?6, Umpherson Street, Chennai",
    "lat": 13.0895363,
    "lng": 80.2848827
  },
  {
    "name": "Jemi guest house No.?6, Umpherson Street, Chennai",
    "lat": 13.0895363,
    "lng": 80.2848827
  },
  {
    "name": "Jemi guest house No.?6, Umpherson Street, Chennai",
    "lat": 13.0895363,
    "lng": 80.2848827
  },
  {
    "name": "Golden Care LODGING HOUSE Periamet, Park Town, Chennai, Tamil Nadu",
    "lat": 13.0809156,
    "lng": 80.2702913
  },
  {
    "name": "Golden Care LODGING HOUSE Periamet, Park Town, Chennai, Tamil Nadu",
    "lat": 13.0809156,
    "lng": 80.2702913
  },
  {
    "name": "Golden Care LODGING HOUSE Periamet, Park Town, Chennai, Tamil Nadu",
    "lat": 13.0809156,
    "lng": 80.2702913
  },
  {
    "name": "Golden Care LODGING HOUSE Periamet, Park Town, Chennai, Tamil Nadu",
    "lat": 13.0809156,
    "lng": 80.2702913
  },
  {
    "name": "Golden Care LODGING HOUSE Periamet, Park Town, Chennai, Tamil Nadu",
    "lat": 13.0809156,
    "lng": 80.2702913
  },
  {
    "name": "Golden Care LODGING HOUSE Periamet, Park Town, Chennai, Tamil Nadu",
    "lat": 13.0809156,
    "lng": 80.2702913
  },
  {
    "name": "Majestic Mansion Triplicane Chennai",
    "lat": 13.0578573,
    "lng": 80.279046
  },
  {
    "name": "Majestic Mansion Triplicane Chennai",
    "lat": 13.0578573,
    "lng": 80.279046
  },
  {
    "name": "Majestic Mansion Triplicane Chennai",
    "lat": 13.0578573,
    "lng": 80.279046
  },
  {
    "name": "Majestic Mansion Triplicane Chennai",
    "lat": 13.0578573,
    "lng": 80.279046
  },
  {
    "name": "Majestic Mansion Triplicane Chennai",
    "lat": 13.0578573,
    "lng": 80.279046
  },
  {
    "name": "Majestic Mansion Triplicane Chennai",
    "lat": 13.0578573,
    "lng": 80.279046
  },
  {
    "name": "Oyo Townhouse Poonamalee High Road Chennai",
    "lat": 13.080582,
    "lng": 80.269417
  },
  {
    "name": "Oyo Townhouse Poonamalee High Road Chennai",
    "lat": 13.080582,
    "lng": 80.269417
  },
  {
    "name": "Oyo Townhouse Poonamalee High Road Chennai",
    "lat": 13.080582,
    "lng": 80.269417
  },
  {
    "name": "Oyo Townhouse Poonamalee High Road Chennai",
    "lat": 13.080582,
    "lng": 80.269417
  },
  {
    "name": "Oyo Townhouse Poonamalee High Road Chennai",
    "lat": 13.080582,
    "lng": 80.269417
  },
  {
    "name": "Oyo Townhouse Poonamalee High Road Chennai",
    "lat": 13.080582,
    "lng": 80.269417
  },
  {
    "name": "Collection O 76917 Grace Residency Central Chennai",
    "lat": 13.0843007,
    "lng": 80.2704622
  },
  {
    "name": "Collection O 76917 Grace Residency Central Chennai",
    "lat": 13.0843007,
    "lng": 80.2704622
  },
  {
    "name": "Collection O 76917 Grace Residency Central Chennai",
    "lat": 13.0843007,
    "lng": 80.2704622
  },
  {
    "name": "Collection O 76917 Grace Residency Central Chennai",
    "lat": 13.0843007,
    "lng": 80.2704622
  },
  {
    "name": "Collection O 76917 Grace Residency Central Chennai",
    "lat": 13.0843007,
    "lng": 80.2704622
  },
  {
    "name": "Collection O 76917 Grace Residency Central Chennai",
    "lat": 13.0843007,
    "lng": 80.2704622
  },
  {
    "name": "Oyo 10018 Grand Residency OMR Chennai",
    "lat": 13.0843007,
    "lng": 80.2704622
  },
  {
    "name": "Oyo 10018 Grand Residency OMR Chennai",
    "lat": 13.0843007,
    "lng": 80.2704622
  },
  {
    "name": "Oyo 10018 Grand Residency OMR Chennai",
    "lat": 13.0843007,
    "lng": 80.2704622
  },
  {
    "name": "Oyo 10018 Grand Residency OMR Chennai",
    "lat": 13.0843007,
    "lng": 80.2704622
  },
  {
    "name": "Oyo 10018 Grand Residency OMR Chennai",
    "lat": 13.0843007,
    "lng": 80.2704622
  },
  {
    "name": "Oyo 10018 Grand Residency OMR Chennai",
    "lat": 13.0843007,
    "lng": 80.2704622
  },
  {
    "name": "Oyo 10018 Grand Residency OMR Chennai",
    "lat": 13.0843007,
    "lng": 80.2704622
  },
  {
    "name": "Sekaran Hotel OMR Perungudi Sekaran Hotel, 14/15, Rajiv Gandhi Salai, MGR Salai, Kandhanchavadi Chennai",
    "lat": 12.9648826,
    "lng": 80.2460758
  },
  {
    "name": "Sekaran Hotel OMR Perungudi Sekaran Hotel, 14/15, Rajiv Gandhi Salai, MGR Salai, Kandhanchavadi Chennai",
    "lat": 12.9648826,
    "lng": 80.2460758
  },
  {
    "name": "Sekaran Hotel OMR Perungudi Sekaran Hotel, 14/15, Rajiv Gandhi Salai, MGR Salai, Kandhanchavadi Chennai",
    "lat": 12.9648826,
    "lng": 80.2460758
  },
  {
    "name": "Sekaran Hotel OMR Perungudi Sekaran Hotel, 14/15, Rajiv Gandhi Salai, MGR Salai, Kandhanchavadi Chennai",
    "lat": 12.9648826,
    "lng": 80.2460758
  },
  {
    "name": "Sekaran Hotel OMR Perungudi Sekaran Hotel, 14/15, Rajiv Gandhi Salai, MGR Salai, Kandhanchavadi Chennai",
    "lat": 12.9648826,
    "lng": 80.2460758
  },
  {
    "name": "Sekaran Hotel OMR Perungudi Sekaran Hotel, 14/15, Rajiv Gandhi Salai, MGR Salai, Kandhanchavadi Chennai",
    "lat": 12.9648826,
    "lng": 80.2460758
  },
  {
    "name": "Sekaran Hotel OMR Perungudi Sekaran Hotel, 14/15, Rajiv Gandhi Salai, MGR Salai, Kandhanchavadi Chennai",
    "lat": 12.9648826,
    "lng": 80.2460758
  },
  {
    "name": "Oyo 44071 Stay N Tour Adyar Chennai",
    "lat": 13.0060156,
    "lng": 80.2534219
  },
  {
    "name": "Oyo 44071 Stay N Tour Adyar Chennai",
    "lat": 13.0060156,
    "lng": 80.2534219
  },
  {
    "name": "Oyo 44071 Stay N Tour Adyar Chennai",
    "lat": 13.0060156,
    "lng": 80.2534219
  },
  {
    "name": "Oyo 44071 Stay N Tour Adyar Chennai",
    "lat": 13.0060156,
    "lng": 80.2534219
  },
  {
    "name": "Oyo 44071 Stay N Tour Adyar Chennai",
    "lat": 13.0060156,
    "lng": 80.2534219
  },
  {
    "name": "Oyo 44071 Stay N Tour Adyar Chennai",
    "lat": 13.0060156,
    "lng": 80.2534219
  },
  {
    "name": "Oyo 44071 Stay N Tour Adyar Chennai",
    "lat": 13.0060156,
    "lng": 80.2534219
  },
  {
    "name": "Hotel Malabar Plaza 106, Santhome High Rd, Mullima Nagar, Santhome, Raja Annamalai Puram, Chennai",
    "lat": 13.0263389,
    "lng": 80.2752794
  },
  {
    "name": "Hotel Malabar Plaza 106, Santhome High Rd, Mullima Nagar, Santhome, Raja Annamalai Puram, Chennai",
    "lat": 13.0263389,
    "lng": 80.2752794
  },
  {
    "name": "Hotel Malabar Plaza 106, Santhome High Rd, Mullima Nagar, Santhome, Raja Annamalai Puram, Chennai",
    "lat": 13.0263389,
    "lng": 80.2752794
  },
  {
    "name": "Hotel Malabar Plaza 106, Santhome High Rd, Mullima Nagar, Santhome, Raja Annamalai Puram, Chennai",
    "lat": 13.0263389,
    "lng": 80.2752794
  },
  {
    "name": "Hotel Malabar Plaza 106, Santhome High Rd, Mullima Nagar, Santhome, Raja Annamalai Puram, Chennai",
    "lat": 13.0263389,
    "lng": 80.2752794
  },
  {
    "name": "Hotel Malabar Plaza 106, Santhome High Rd, Mullima Nagar, Santhome, Raja Annamalai Puram, Chennai",
    "lat": 13.0263389,
    "lng": 80.2752794
  },
  {
    "name": "Hotel Malabar Plaza 106, Santhome High Rd, Mullima Nagar, Santhome, Raja Annamalai Puram, Chennai",
    "lat": 13.0263389,
    "lng": 80.2752794
  },
  {
    "name": "Taz Kamar Inn 36, Rangan St, Postal Colony, T. Nagar, Chennai, Tamil Nadu, India",
    "lat": 13.0392733,
    "lng": 80.2293064
  },
  {
    "name": "Taz Kamar Inn 36, Rangan St, Postal Colony, T. Nagar, Chennai, Tamil Nadu, India",
    "lat": 13.0392733,
    "lng": 80.2293064
  },
  {
    "name": "Taz Kamar Inn 36, Rangan St, Postal Colony, T. Nagar, Chennai, Tamil Nadu, India",
    "lat": 13.0392733,
    "lng": 80.2293064
  },
  {
    "name": "Taz Kamar Inn 36, Rangan St, Postal Colony, T. Nagar, Chennai, Tamil Nadu, India",
    "lat": 13.0392733,
    "lng": 80.2293064
  },
  {
    "name": "Taz Kamar Inn 36, Rangan St, Postal Colony, T. Nagar, Chennai, Tamil Nadu, India",
    "lat": 13.0392733,
    "lng": 80.2293064
  },
  {
    "name": "Taz Kamar Inn 36, Rangan St, Postal Colony, T. Nagar, Chennai, Tamil Nadu, India",
    "lat": 13.0392733,
    "lng": 80.2293064
  },
  {
    "name": "Taz Kamar Inn 36, Rangan St, Postal Colony, T. Nagar, Chennai, Tamil Nadu, India",
    "lat": 13.0392733,
    "lng": 80.2293064
  },
  {
    "name": "Hotel Raaj Pearl Alwarpet Hotel Raaj Pearl Alwarpet, Chennai",
    "lat": 13.0411723,
    "lng": 80.2587817
  },
  {
    "name": "Hotel Raaj Pearl Alwarpet Hotel Raaj Pearl Alwarpet, Chennai",
    "lat": 13.0411723,
    "lng": 80.2587817
  },
  {
    "name": "Hotel Raaj Pearl Alwarpet Hotel Raaj Pearl Alwarpet, Chennai",
    "lat": 13.0411723,
    "lng": 80.2587817
  },
  {
    "name": "Hotel Raaj Pearl Alwarpet Hotel Raaj Pearl Alwarpet, Chennai",
    "lat": 13.0411723,
    "lng": 80.2587817
  },
  {
    "name": "Hotel Raaj Pearl Alwarpet Hotel Raaj Pearl Alwarpet, Chennai",
    "lat": 13.0411723,
    "lng": 80.2587817
  },
  {
    "name": "Hotel Raaj Pearl Alwarpet Hotel Raaj Pearl Alwarpet, Chennai",
    "lat": 13.0411723,
    "lng": 80.2587817
  },
  {
    "name": "Hotel Raaj Pearl Alwarpet Hotel Raaj Pearl Alwarpet, Chennai",
    "lat": 13.0411723,
    "lng": 80.2587817
  },
  {
    "name": "FabExpress P.A.S Residency 15, Nainar Nadar Street, Loganathan Colony, Mylapore, Chennai \u00c3\u0192\u00c2\u00a2\u00c3\u00a2\u00e2\u20ac\u0161\u00c2\u00ac\u00c3\u00a2\u00e2\u201a\u00ac\u00c5\u201c",
    "lat": 13.0423019,
    "lng": 80.2735904
  },
  {
    "name": "FabExpress P.A.S Residency 15, Nainar Nadar Street, Loganathan Colony, Mylapore, Chennai \u00c3\u0192\u00c2\u00a2\u00c3\u00a2\u00e2\u20ac\u0161\u00c2\u00ac\u00c3\u00a2\u00e2\u201a\u00ac\u00c5\u201c",
    "lat": 13.0423019,
    "lng": 80.2735904
  },
  {
    "name": "FabExpress P.A.S Residency 15, Nainar Nadar Street, Loganathan Colony, Mylapore, Chennai \u00c3\u0192\u00c2\u00a2\u00c3\u00a2\u00e2\u20ac\u0161\u00c2\u00ac\u00c3\u00a2\u00e2\u201a\u00ac\u00c5\u201c",
    "lat": 13.0423019,
    "lng": 80.2735904
  },
  {
    "name": "FabExpress P.A.S Residency 15, Nainar Nadar Street, Loganathan Colony, Mylapore, Chennai \u00c3\u0192\u00c2\u00a2\u00c3\u00a2\u00e2\u20ac\u0161\u00c2\u00ac\u00c3\u00a2\u00e2\u201a\u00ac\u00c5\u201c",
    "lat": 13.0423019,
    "lng": 80.2735904
  },
  {
    "name": "FabExpress P.A.S Residency 15, Nainar Nadar Street, Loganathan Colony, Mylapore, Chennai \u00c3\u0192\u00c2\u00a2\u00c3\u00a2\u00e2\u20ac\u0161\u00c2\u00ac\u00c3\u00a2\u00e2\u201a\u00ac\u00c5\u201c",
    "lat": 13.0423019,
    "lng": 80.2735904
  },
  {
    "name": "FabExpress P.A.S Residency 15, Nainar Nadar Street, Loganathan Colony, Mylapore, Chennai \u00c3\u0192\u00c2\u00a2\u00c3\u00a2\u00e2\u20ac\u0161\u00c2\u00ac\u00c3\u00a2\u00e2\u201a\u00ac\u00c5\u201c",
    "lat": 13.0423019,
    "lng": 80.2735904
  },
  {
    "name": "FabExpress P.A.S Residency 15, Nainar Nadar Street, Loganathan Colony, Mylapore, Chennai \u00c3\u0192\u00c2\u00a2\u00c3\u00a2\u00e2\u20ac\u0161\u00c2\u00ac\u00c3\u00a2\u00e2\u201a\u00ac\u00c5\u201c",
    "lat": 13.0423019,
    "lng": 80.2735904
  },
  {
    "name": "GREEN PALACE INN HOTEL GREEN PALACE INN HOTEL, Govindu street T.nagar, chennai",
    "lat": 13.0426823,
    "lng": 80.2336378
  },
  {
    "name": "GREEN PALACE INN HOTEL GREEN PALACE INN HOTEL, Govindu street T.nagar, chennai",
    "lat": 13.0426823,
    "lng": 80.2336378
  },
  {
    "name": "GREEN PALACE INN HOTEL GREEN PALACE INN HOTEL, Govindu street T.nagar, chennai",
    "lat": 13.0426823,
    "lng": 80.2336378
  },
  {
    "name": "GREEN PALACE INN HOTEL GREEN PALACE INN HOTEL, Govindu street T.nagar, chennai",
    "lat": 13.0426823,
    "lng": 80.2336378
  },
  {
    "name": "GREEN PALACE INN HOTEL GREEN PALACE INN HOTEL, Govindu street T.nagar, chennai",
    "lat": 13.0426823,
    "lng": 80.2336378
  },
  {
    "name": "GREEN PALACE INN HOTEL GREEN PALACE INN HOTEL, Govindu street T.nagar, chennai",
    "lat": 13.0426823,
    "lng": 80.2336378
  },
  {
    "name": "GREEN PALACE INN HOTEL GREEN PALACE INN HOTEL, Govindu street T.nagar, chennai",
    "lat": 13.0426823,
    "lng": 80.2336378
  },
  {
    "name": "Hotel Season 4 Residency Chennai",
    "lat": 13.0518713,
    "lng": 80.2483532
  },
  {
    "name": "Hotel Season 4 Residency Chennai",
    "lat": 13.0518713,
    "lng": 80.2483532
  },
  {
    "name": "Hotel Season 4 Residency Chennai",
    "lat": 13.0518713,
    "lng": 80.2483532
  },
  {
    "name": "Hotel Season 4 Residency Chennai",
    "lat": 13.0518713,
    "lng": 80.2483532
  },
  {
    "name": "Hotel Season 4 Residency Chennai",
    "lat": 13.0518713,
    "lng": 80.2483532
  },
  {
    "name": "Hotel Season 4 Residency Chennai",
    "lat": 13.0518713,
    "lng": 80.2483532
  },
  {
    "name": "Hotel Season 4 Residency Chennai",
    "lat": 13.0518713,
    "lng": 80.2483532
  },
  {
    "name": "Zama lodge 245, Zama Lodge, 331 & 333, Anna Salai, . Kamaraj Memorial Hall, Chokkalingam Chennai",
    "lat": 13.0484365,
    "lng": 80.2497078
  },
  {
    "name": "Zama lodge 245, Zama Lodge, 331 & 333, Anna Salai, . Kamaraj Memorial Hall, Chokkalingam Chennai",
    "lat": 13.0484365,
    "lng": 80.2497078
  },
  {
    "name": "Zama lodge 245, Zama Lodge, 331 & 333, Anna Salai, . Kamaraj Memorial Hall, Chokkalingam Chennai",
    "lat": 13.0484365,
    "lng": 80.2497078
  },
  {
    "name": "Zama lodge 245, Zama Lodge, 331 & 333, Anna Salai, . Kamaraj Memorial Hall, Chokkalingam Chennai",
    "lat": 13.0484365,
    "lng": 80.2497078
  },
  {
    "name": "Zama lodge 245, Zama Lodge, 331 & 333, Anna Salai, . Kamaraj Memorial Hall, Chokkalingam Chennai",
    "lat": 13.0484365,
    "lng": 80.2497078
  },
  {
    "name": "Zama lodge 245, Zama Lodge, 331 & 333, Anna Salai, . Kamaraj Memorial Hall, Chokkalingam Chennai",
    "lat": 13.0484365,
    "lng": 80.2497078
  },
  {
    "name": "Zama lodge 245, Zama Lodge, 331 & 333, Anna Salai, . Kamaraj Memorial Hall, Chokkalingam Chennai",
    "lat": 13.0484365,
    "lng": 80.2497078
  },
  {
    "name": "Fab Express Lloyds Inn Plot No. 6, N Usman Rd, Parthsarathy Puram, Parthasarathi Puram, T. Nagar, Chennai",
    "lat": 13.0527304,
    "lng": 80.2343669
  },
  {
    "name": "Fab Express Lloyds Inn Plot No. 6, N Usman Rd, Parthsarathy Puram, Parthasarathi Puram, T. Nagar, Chennai",
    "lat": 13.0527304,
    "lng": 80.2343669
  },
  {
    "name": "Fab Express Lloyds Inn Plot No. 6, N Usman Rd, Parthsarathy Puram, Parthasarathi Puram, T. Nagar, Chennai",
    "lat": 13.0527304,
    "lng": 80.2343669
  },
  {
    "name": "Fab Express Lloyds Inn Plot No. 6, N Usman Rd, Parthsarathy Puram, Parthasarathi Puram, T. Nagar, Chennai",
    "lat": 13.0527304,
    "lng": 80.2343669
  },
  {
    "name": "Fab Express Lloyds Inn Plot No. 6, N Usman Rd, Parthsarathy Puram, Parthasarathi Puram, T. Nagar, Chennai",
    "lat": 13.0527304,
    "lng": 80.2343669
  },
  {
    "name": "Fab Express Lloyds Inn Plot No. 6, N Usman Rd, Parthsarathy Puram, Parthasarathi Puram, T. Nagar, Chennai",
    "lat": 13.0527304,
    "lng": 80.2343669
  },
  {
    "name": "Fab Express Lloyds Inn Plot No. 6, N Usman Rd, Parthsarathy Puram, Parthasarathi Puram, T. Nagar, Chennai",
    "lat": 13.0527304,
    "lng": 80.2343669
  },
  {
    "name": "Sarovara Deluxe Rooms 3 Woods Road, Anna Salai, Chennai, Tamil Nadu, India",
    "lat": 13.0623159,
    "lng": 80.2641403
  },
  {
    "name": "Sarovara Deluxe Rooms 3 Woods Road, Anna Salai, Chennai, Tamil Nadu, India",
    "lat": 13.0623159,
    "lng": 80.2641403
  },
  {
    "name": "Sarovara Deluxe Rooms 3 Woods Road, Anna Salai, Chennai, Tamil Nadu, India",
    "lat": 13.0623159,
    "lng": 80.2641403
  },
  {
    "name": "Sarovara Deluxe Rooms 3 Woods Road, Anna Salai, Chennai, Tamil Nadu, India",
    "lat": 13.0623159,
    "lng": 80.2641403
  },
  {
    "name": "Sarovara Deluxe Rooms 3 Woods Road, Anna Salai, Chennai, Tamil Nadu, India",
    "lat": 13.0623159,
    "lng": 80.2641403
  },
  {
    "name": "Sarovara Deluxe Rooms 3 Woods Road, Anna Salai, Chennai, Tamil Nadu, India",
    "lat": 13.0623159,
    "lng": 80.2641403
  },
  {
    "name": "Sarovara Deluxe Rooms 3 Woods Road, Anna Salai, Chennai, Tamil Nadu, India",
    "lat": 13.0623159,
    "lng": 80.2641403
  },
  {
    "name": "S.K Palace OVM Street, Chepauk Chennai",
    "lat": 13.063572,
    "lng": 80.277523
  },
  {
    "name": "S.K Palace OVM Street, Chepauk Chennai",
    "lat": 13.063572,
    "lng": 80.277523
  },
  {
    "name": "S.K Palace OVM Street, Chepauk Chennai",
    "lat": 13.063572,
    "lng": 80.277523
  },
  {
    "name": "S.K Palace OVM Street, Chepauk Chennai",
    "lat": 13.063572,
    "lng": 80.277523
  },
  {
    "name": "S.K Palace OVM Street, Chepauk Chennai",
    "lat": 13.063572,
    "lng": 80.277523
  },
  {
    "name": "S.K Palace OVM Street, Chepauk Chennai",
    "lat": 13.063572,
    "lng": 80.277523
  },
  {
    "name": "S.K Palace OVM Street, Chepauk Chennai",
    "lat": 13.063572,
    "lng": 80.277523
  },
  {
    "name": "Fab Hotel Prime Stalin Pleasant Park ?123, ?139 Wallajah Road Mount Road, Triplican Chennai",
    "lat": 13.0678062,
    "lng": 80.271991
  },
  {
    "name": "Fab Hotel Prime Stalin Pleasant Park ?123, ?139 Wallajah Road Mount Road, Triplican Chennai",
    "lat": 13.0678062,
    "lng": 80.271991
  },
  {
    "name": "Fab Hotel Prime Stalin Pleasant Park ?123, ?139 Wallajah Road Mount Road, Triplican Chennai",
    "lat": 13.0678062,
    "lng": 80.271991
  },
  {
    "name": "Fab Hotel Prime Stalin Pleasant Park ?123, ?139 Wallajah Road Mount Road, Triplican Chennai",
    "lat": 13.0678062,
    "lng": 80.271991
  },
  {
    "name": "Fab Hotel Prime Stalin Pleasant Park ?123, ?139 Wallajah Road Mount Road, Triplican Chennai",
    "lat": 13.0678062,
    "lng": 80.271991
  },
  {
    "name": "Fab Hotel Prime Stalin Pleasant Park ?123, ?139 Wallajah Road Mount Road, Triplican Chennai",
    "lat": 13.0678062,
    "lng": 80.271991
  },
  {
    "name": "Fab Hotel Prime Stalin Pleasant Park ?123, ?139 Wallajah Road Mount Road, Triplican Chennai",
    "lat": 13.0678062,
    "lng": 80.271991
  },
  {
    "name": "Hotel White Mount Perimet Chennai",
    "lat": 13.0833738,
    "lng": 80.2699453
  },
  {
    "name": "Hotel White Mount Perimet Chennai",
    "lat": 13.0833738,
    "lng": 80.2699453
  },
  {
    "name": "Hotel White Mount Perimet Chennai",
    "lat": 13.0833738,
    "lng": 80.2699453
  },
  {
    "name": "Hotel White Mount Perimet Chennai",
    "lat": 13.0833738,
    "lng": 80.2699453
  },
  {
    "name": "Hotel White Mount Perimet Chennai",
    "lat": 13.0833738,
    "lng": 80.2699453
  },
  {
    "name": "Hotel White Mount Perimet Chennai",
    "lat": 13.0833738,
    "lng": 80.2699453
  },
  {
    "name": "Hotel White Mount Perimet Chennai",
    "lat": 13.0833738,
    "lng": 80.2699453
  },
  {
    "name": "Hotel Adhava Park Inn 54, Raja Muthiah Rd, KFC, Periamet, Park Town, Chennai, Tamil Nadu 60000",
    "lat": 13.0836968,
    "lng": 80.2703199
  },
  {
    "name": "Hotel Adhava Park Inn 54, Raja Muthiah Rd, KFC, Periamet, Park Town, Chennai, Tamil Nadu 60000",
    "lat": 13.0836968,
    "lng": 80.2703199
  },
  {
    "name": "Hotel Adhava Park Inn 54, Raja Muthiah Rd, KFC, Periamet, Park Town, Chennai, Tamil Nadu 60000",
    "lat": 13.0836968,
    "lng": 80.2703199
  },
  {
    "name": "Hotel Adhava Park Inn 54, Raja Muthiah Rd, KFC, Periamet, Park Town, Chennai, Tamil Nadu 60000",
    "lat": 13.0836968,
    "lng": 80.2703199
  },
  {
    "name": "Hotel Adhava Park Inn 54, Raja Muthiah Rd, KFC, Periamet, Park Town, Chennai, Tamil Nadu 60000",
    "lat": 13.0836968,
    "lng": 80.2703199
  },
  {
    "name": "Hotel Adhava Park Inn 54, Raja Muthiah Rd, KFC, Periamet, Park Town, Chennai, Tamil Nadu 60000",
    "lat": 13.0836968,
    "lng": 80.2703199
  },
  {
    "name": "Hotel Adhava Park Inn 54, Raja Muthiah Rd, KFC, Periamet, Park Town, Chennai, Tamil Nadu 60000",
    "lat": 13.0836968,
    "lng": 80.2703199
  },
  {
    "name": "OYO 24592 Great Hotel OYO 24592 Great Hotel, 149, Wall Tax Rd, Mahakavi Bharathiyar Nagar Central Chennai",
    "lat": 13.0844658,
    "lng": 80.2760917
  },
  {
    "name": "OYO 24592 Great Hotel OYO 24592 Great Hotel, 149, Wall Tax Rd, Mahakavi Bharathiyar Nagar Central Chennai",
    "lat": 13.0844658,
    "lng": 80.2760917
  },
  {
    "name": "OYO 24592 Great Hotel OYO 24592 Great Hotel, 149, Wall Tax Rd, Mahakavi Bharathiyar Nagar Central Chennai",
    "lat": 13.0844658,
    "lng": 80.2760917
  },
  {
    "name": "OYO 24592 Great Hotel OYO 24592 Great Hotel, 149, Wall Tax Rd, Mahakavi Bharathiyar Nagar Central Chennai",
    "lat": 13.0844658,
    "lng": 80.2760917
  },
  {
    "name": "OYO 24592 Great Hotel OYO 24592 Great Hotel, 149, Wall Tax Rd, Mahakavi Bharathiyar Nagar Central Chennai",
    "lat": 13.0844658,
    "lng": 80.2760917
  },
  {
    "name": "OYO 24592 Great Hotel OYO 24592 Great Hotel, 149, Wall Tax Rd, Mahakavi Bharathiyar Nagar Central Chennai",
    "lat": 13.0844658,
    "lng": 80.2760917
  },
  {
    "name": "OYO 24592 Great Hotel OYO 24592 Great Hotel, 149, Wall Tax Rd, Mahakavi Bharathiyar Nagar Central Chennai",
    "lat": 13.0844658,
    "lng": 80.2760917
  },
  {
    "name": "RKN Homes No.27, W, 1st Street, Anna Nagar West. Chennai ",
    "lat": 13.08579,
    "lng": 80.200902
  },
  {
    "name": "RKN Homes No.27, W, 1st Street, Anna Nagar West. Chennai ",
    "lat": 13.08579,
    "lng": 80.200902
  },
  {
    "name": "RKN Homes No.27, W, 1st Street, Anna Nagar West. Chennai ",
    "lat": 13.08579,
    "lng": 80.200902
  },
  {
    "name": "RKN Homes No.27, W, 1st Street, Anna Nagar West. Chennai ",
    "lat": 13.08579,
    "lng": 80.200902
  },
  {
    "name": "RKN Homes No.27, W, 1st Street, Anna Nagar West. Chennai ",
    "lat": 13.08579,
    "lng": 80.200902
  },
  {
    "name": "RKN Homes No.27, W, 1st Street, Anna Nagar West. Chennai ",
    "lat": 13.08579,
    "lng": 80.200902
  },
  {
    "name": "RKN Homes No.27, W, 1st Street, Anna Nagar West. Chennai ",
    "lat": 13.08579,
    "lng": 80.200902
  },
  {
    "name": "KHALEEJ RESIDENCY 45/20, Model School Road, Thousand Lights, Chennai \u00c3\u0192\u00c2\u00a2\u00c3\u00a2\u00e2\u20ac\u0161\u00c2\u00ac\u00c3\u00a2\u00e2\u201a\u00ac\u00c5\u201c, Tamil Nadu, India",
    "lat": 13.0562917,
    "lng": 80.2518745
  },
  {
    "name": "KHALEEJ RESIDENCY 45/20, Model School Road, Thousand Lights, Chennai \u00c3\u0192\u00c2\u00a2\u00c3\u00a2\u00e2\u20ac\u0161\u00c2\u00ac\u00c3\u00a2\u00e2\u201a\u00ac\u00c5\u201c, Tamil Nadu, India",
    "lat": 13.0562917,
    "lng": 80.2518745
  },
  {
    "name": "KHALEEJ RESIDENCY 45/20, Model School Road, Thousand Lights, Chennai \u00c3\u0192\u00c2\u00a2\u00c3\u00a2\u00e2\u20ac\u0161\u00c2\u00ac\u00c3\u00a2\u00e2\u201a\u00ac\u00c5\u201c, Tamil Nadu, India",
    "lat": 13.0562917,
    "lng": 80.2518745
  },
  {
    "name": "KHALEEJ RESIDENCY 45/20, Model School Road, Thousand Lights, Chennai \u00c3\u0192\u00c2\u00a2\u00c3\u00a2\u00e2\u20ac\u0161\u00c2\u00ac\u00c3\u00a2\u00e2\u201a\u00ac\u00c5\u201c, Tamil Nadu, India",
    "lat": 13.0562917,
    "lng": 80.2518745
  },
  {
    "name": "KHALEEJ RESIDENCY 45/20, Model School Road, Thousand Lights, Chennai \u00c3\u0192\u00c2\u00a2\u00c3\u00a2\u00e2\u20ac\u0161\u00c2\u00ac\u00c3\u00a2\u00e2\u201a\u00ac\u00c5\u201c, Tamil Nadu, India",
    "lat": 13.0562917,
    "lng": 80.2518745
  },
  {
    "name": "KHALEEJ RESIDENCY 45/20, Model School Road, Thousand Lights, Chennai \u00c3\u0192\u00c2\u00a2\u00c3\u00a2\u00e2\u20ac\u0161\u00c2\u00ac\u00c3\u00a2\u00e2\u201a\u00ac\u00c5\u201c, Tamil Nadu, India",
    "lat": 13.0562917,
    "lng": 80.2518745
  },
  {
    "name": "KHALEEJ RESIDENCY 45/20, Model School Road, Thousand Lights, Chennai \u00c3\u0192\u00c2\u00a2\u00c3\u00a2\u00e2\u20ac\u0161\u00c2\u00ac\u00c3\u00a2\u00e2\u201a\u00ac\u00c5\u201c, Tamil Nadu, India",
    "lat": 13.0562917,
    "lng": 80.2518745
  },
  {
    "name": "JN Residency PLOT NO 9&10, CBI Colony Main Rd, Lakshman Nagar, Perungudi, Chennai, Tamil Nadu 60009",
    "lat": 12.964707,
    "lng": 80.2446247
  },
  {
    "name": "JN Residency PLOT NO 9&10, CBI Colony Main Rd, Lakshman Nagar, Perungudi, Chennai, Tamil Nadu 60009",
    "lat": 12.964707,
    "lng": 80.2446247
  },
  {
    "name": "JN Residency PLOT NO 9&10, CBI Colony Main Rd, Lakshman Nagar, Perungudi, Chennai, Tamil Nadu 60009",
    "lat": 12.964707,
    "lng": 80.2446247
  },
  {
    "name": "JN Residency PLOT NO 9&10, CBI Colony Main Rd, Lakshman Nagar, Perungudi, Chennai, Tamil Nadu 60009",
    "lat": 12.964707,
    "lng": 80.2446247
  },
  {
    "name": "JN Residency PLOT NO 9&10, CBI Colony Main Rd, Lakshman Nagar, Perungudi, Chennai, Tamil Nadu 60009",
    "lat": 12.964707,
    "lng": 80.2446247
  },
  {
    "name": "JN Residency PLOT NO 9&10, CBI Colony Main Rd, Lakshman Nagar, Perungudi, Chennai, Tamil Nadu 60009",
    "lat": 12.964707,
    "lng": 80.2446247
  },
  {
    "name": "JN Residency PLOT NO 9&10, CBI Colony Main Rd, Lakshman Nagar, Perungudi, Chennai, Tamil Nadu 60009",
    "lat": 12.964707,
    "lng": 80.2446247
  },
  {
    "name": "JN Residency PLOT NO 9&10, CBI Colony Main Rd, Lakshman Nagar, Perungudi, Chennai, Tamil Nadu 60009",
    "lat": 12.964707,
    "lng": 80.2446247
  },
  {
    "name": "Oyo 16596 Akash Inn Elite Adyar Chennai",
    "lat": 13.0049353,
    "lng": 80.2624001
  },
  {
    "name": "Oyo 16596 Akash Inn Elite Adyar Chennai",
    "lat": 13.0049353,
    "lng": 80.2624001
  },
  {
    "name": "Oyo 16596 Akash Inn Elite Adyar Chennai",
    "lat": 13.0049353,
    "lng": 80.2624001
  },
  {
    "name": "Oyo 16596 Akash Inn Elite Adyar Chennai",
    "lat": 13.0049353,
    "lng": 80.2624001
  },
  {
    "name": "Oyo 16596 Akash Inn Elite Adyar Chennai",
    "lat": 13.0049353,
    "lng": 80.2624001
  },
  {
    "name": "Oyo 16596 Akash Inn Elite Adyar Chennai",
    "lat": 13.0049353,
    "lng": 80.2624001
  },
  {
    "name": "Oyo 16596 Akash Inn Elite Adyar Chennai",
    "lat": 13.0049353,
    "lng": 80.2624001
  },
  {
    "name": "Oyo 16596 Akash Inn Elite Adyar Chennai",
    "lat": 13.0049353,
    "lng": 80.2624001
  },
  {
    "name": "Madras Race Club Madras Race Club guindy Chennai",
    "lat": 13.0086209,
    "lng": 80.2147461
  },
  {
    "name": "Madras Race Club Madras Race Club guindy Chennai",
    "lat": 13.0086209,
    "lng": 80.2147461
  },
  {
    "name": "Madras Race Club Madras Race Club guindy Chennai",
    "lat": 13.0086209,
    "lng": 80.2147461
  },
  {
    "name": "Madras Race Club Madras Race Club guindy Chennai",
    "lat": 13.0086209,
    "lng": 80.2147461
  },
  {
    "name": "Madras Race Club Madras Race Club guindy Chennai",
    "lat": 13.0086209,
    "lng": 80.2147461
  },
  {
    "name": "Madras Race Club Madras Race Club guindy Chennai",
    "lat": 13.0086209,
    "lng": 80.2147461
  },
  {
    "name": "Madras Race Club Madras Race Club guindy Chennai",
    "lat": 13.0086209,
    "lng": 80.2147461
  },
  {
    "name": "Madras Race Club Madras Race Club guindy Chennai",
    "lat": 13.0086209,
    "lng": 80.2147461
  },
  {
    "name": "HILTON HOTEL 124, 1, Jawaharlal Nehru Salai, Poomagal Nagar, Guindy, Chennai, Tamil Nadu",
    "lat": 13.0166902,
    "lng": 80.2049061
  },
  {
    "name": "HILTON HOTEL 124, 1, Jawaharlal Nehru Salai, Poomagal Nagar, Guindy, Chennai, Tamil Nadu",
    "lat": 13.0166902,
    "lng": 80.2049061
  },
  {
    "name": "HILTON HOTEL 124, 1, Jawaharlal Nehru Salai, Poomagal Nagar, Guindy, Chennai, Tamil Nadu",
    "lat": 13.0166902,
    "lng": 80.2049061
  },
  {
    "name": "HILTON HOTEL 124, 1, Jawaharlal Nehru Salai, Poomagal Nagar, Guindy, Chennai, Tamil Nadu",
    "lat": 13.0166902,
    "lng": 80.2049061
  },
  {
    "name": "HILTON HOTEL 124, 1, Jawaharlal Nehru Salai, Poomagal Nagar, Guindy, Chennai, Tamil Nadu",
    "lat": 13.0166902,
    "lng": 80.2049061
  },
  {
    "name": "HILTON HOTEL 124, 1, Jawaharlal Nehru Salai, Poomagal Nagar, Guindy, Chennai, Tamil Nadu",
    "lat": 13.0166902,
    "lng": 80.2049061
  },
  {
    "name": "HILTON HOTEL 124, 1, Jawaharlal Nehru Salai, Poomagal Nagar, Guindy, Chennai, Tamil Nadu",
    "lat": 13.0166902,
    "lng": 80.2049061
  },
  {
    "name": "HILTON HOTEL 124, 1, Jawaharlal Nehru Salai, Poomagal Nagar, Guindy, Chennai, Tamil Nadu",
    "lat": 13.0166902,
    "lng": 80.2049061
  },
  {
    "name": "Hotel Alfa Palace No5, School Rd, Huma hospital, CIT Nagar West, Nandanam, Chennai",
    "lat": 13.0285624,
    "lng": 80.2349609
  },
  {
    "name": "Hotel Alfa Palace No5, School Rd, Huma hospital, CIT Nagar West, Nandanam, Chennai",
    "lat": 13.0285624,
    "lng": 80.2349609
  },
  {
    "name": "Hotel Alfa Palace No5, School Rd, Huma hospital, CIT Nagar West, Nandanam, Chennai",
    "lat": 13.0285624,
    "lng": 80.2349609
  },
  {
    "name": "Hotel Alfa Palace No5, School Rd, Huma hospital, CIT Nagar West, Nandanam, Chennai",
    "lat": 13.0285624,
    "lng": 80.2349609
  },
  {
    "name": "Hotel Alfa Palace No5, School Rd, Huma hospital, CIT Nagar West, Nandanam, Chennai",
    "lat": 13.0285624,
    "lng": 80.2349609
  },
  {
    "name": "Hotel Alfa Palace No5, School Rd, Huma hospital, CIT Nagar West, Nandanam, Chennai",
    "lat": 13.0285624,
    "lng": 80.2349609
  },
  {
    "name": "Hotel Alfa Palace No5, School Rd, Huma hospital, CIT Nagar West, Nandanam, Chennai",
    "lat": 13.0285624,
    "lng": 80.2349609
  },
  {
    "name": "Hotel Alfa Palace No5, School Rd, Huma hospital, CIT Nagar West, Nandanam, Chennai",
    "lat": 13.0285624,
    "lng": 80.2349609
  },
  {
    "name": "Novotel chennai chamiers road 11 chamiers road, Nandanam, chennaj, Chennai",
    "lat": 13.0300103,
    "lng": 80.2442236
  },
  {
    "name": "Novotel chennai chamiers road 11 chamiers road, Nandanam, chennaj, Chennai",
    "lat": 13.0300103,
    "lng": 80.2442236
  },
  {
    "name": "Novotel chennai chamiers road 11 chamiers road, Nandanam, chennaj, Chennai",
    "lat": 13.0300103,
    "lng": 80.2442236
  },
  {
    "name": "Novotel chennai chamiers road 11 chamiers road, Nandanam, chennaj, Chennai",
    "lat": 13.0300103,
    "lng": 80.2442236
  },
  {
    "name": "Novotel chennai chamiers road 11 chamiers road, Nandanam, chennaj, Chennai",
    "lat": 13.0300103,
    "lng": 80.2442236
  },
  {
    "name": "Novotel chennai chamiers road 11 chamiers road, Nandanam, chennaj, Chennai",
    "lat": 13.0300103,
    "lng": 80.2442236
  },
  {
    "name": "Novotel chennai chamiers road 11 chamiers road, Nandanam, chennaj, Chennai",
    "lat": 13.0300103,
    "lng": 80.2442236
  },
  {
    "name": "Novotel chennai chamiers road 11 chamiers road, Nandanam, chennaj, Chennai",
    "lat": 13.0300103,
    "lng": 80.2442236
  },
  {
    "name": "Kuber InnNandanam No 34, Venkatanaraya Road Derar Statue, Nandanam Signal, Chennai, Ind",
    "lat": 13.0312542,
    "lng": 80.2393224
  },
  {
    "name": "Kuber InnNandanam No 34, Venkatanaraya Road Derar Statue, Nandanam Signal, Chennai, Ind",
    "lat": 13.0312542,
    "lng": 80.2393224
  },
  {
    "name": "Kuber InnNandanam No 34, Venkatanaraya Road Derar Statue, Nandanam Signal, Chennai, Ind",
    "lat": 13.0312542,
    "lng": 80.2393224
  },
  {
    "name": "Kuber InnNandanam No 34, Venkatanaraya Road Derar Statue, Nandanam Signal, Chennai, Ind",
    "lat": 13.0312542,
    "lng": 80.2393224
  },
  {
    "name": "Kuber InnNandanam No 34, Venkatanaraya Road Derar Statue, Nandanam Signal, Chennai, Ind",
    "lat": 13.0312542,
    "lng": 80.2393224
  },
  {
    "name": "Kuber InnNandanam No 34, Venkatanaraya Road Derar Statue, Nandanam Signal, Chennai, Ind",
    "lat": 13.0312542,
    "lng": 80.2393224
  },
  {
    "name": "Kuber InnNandanam No 34, Venkatanaraya Road Derar Statue, Nandanam Signal, Chennai, Ind",
    "lat": 13.0312542,
    "lng": 80.2393224
  },
  {
    "name": "Kuber InnNandanam No 34, Venkatanaraya Road Derar Statue, Nandanam Signal, Chennai, Ind",
    "lat": 13.0312542,
    "lng": 80.2393224
  },
  {
    "name": "Hotel MCentral No.?10?Thanikachalam Road New, ?35, T.?Nagar, Chennai \u00c3\u0192\u00c2\u00a2\u00c3\u00a2\u00e2\u20ac\u0161\u00c2\u00ac\u00c3\u00a2\u00e2\u201a\u00ac\u00c5\u201c",
    "lat": 13.0382967,
    "lng": 80.239528
  },
  {
    "name": "Hotel MCentral No.?10?Thanikachalam Road New, ?35, T.?Nagar, Chennai \u00c3\u0192\u00c2\u00a2\u00c3\u00a2\u00e2\u20ac\u0161\u00c2\u00ac\u00c3\u00a2\u00e2\u201a\u00ac\u00c5\u201c",
    "lat": 13.0382967,
    "lng": 80.239528
  },
  {
    "name": "Hotel MCentral No.?10?Thanikachalam Road New, ?35, T.?Nagar, Chennai \u00c3\u0192\u00c2\u00a2\u00c3\u00a2\u00e2\u20ac\u0161\u00c2\u00ac\u00c3\u00a2\u00e2\u201a\u00ac\u00c5\u201c",
    "lat": 13.0382967,
    "lng": 80.239528
  },
  {
    "name": "Hotel MCentral No.?10?Thanikachalam Road New, ?35, T.?Nagar, Chennai \u00c3\u0192\u00c2\u00a2\u00c3\u00a2\u00e2\u20ac\u0161\u00c2\u00ac\u00c3\u00a2\u00e2\u201a\u00ac\u00c5\u201c",
    "lat": 13.0382967,
    "lng": 80.239528
  },
  {
    "name": "Hotel MCentral No.?10?Thanikachalam Road New, ?35, T.?Nagar, Chennai \u00c3\u0192\u00c2\u00a2\u00c3\u00a2\u00e2\u20ac\u0161\u00c2\u00ac\u00c3\u00a2\u00e2\u201a\u00ac\u00c5\u201c",
    "lat": 13.0382967,
    "lng": 80.239528
  },
  {
    "name": "Hotel MCentral No.?10?Thanikachalam Road New, ?35, T.?Nagar, Chennai \u00c3\u0192\u00c2\u00a2\u00c3\u00a2\u00e2\u20ac\u0161\u00c2\u00ac\u00c3\u00a2\u00e2\u201a\u00ac\u00c5\u201c",
    "lat": 13.0382967,
    "lng": 80.239528
  },
  {
    "name": "Hotel MCentral No.?10?Thanikachalam Road New, ?35, T.?Nagar, Chennai \u00c3\u0192\u00c2\u00a2\u00c3\u00a2\u00e2\u20ac\u0161\u00c2\u00ac\u00c3\u00a2\u00e2\u201a\u00ac\u00c5\u201c",
    "lat": 13.0382967,
    "lng": 80.239528
  },
  {
    "name": "Hotel MCentral No.?10?Thanikachalam Road New, ?35, T.?Nagar, Chennai \u00c3\u0192\u00c2\u00a2\u00c3\u00a2\u00e2\u20ac\u0161\u00c2\u00ac\u00c3\u00a2\u00e2\u201a\u00ac\u00c5\u201c",
    "lat": 13.0382967,
    "lng": 80.239528
  },
  {
    "name": "Hotel Terra 33/79Dr, Giriyappa Rd, Drivers Colony, T. Nagar, Chennai, Tamil Nadu",
    "lat": 13.0415372,
    "lng": 80.2457829
  },
  {
    "name": "Hotel Terra 33/79Dr, Giriyappa Rd, Drivers Colony, T. Nagar, Chennai, Tamil Nadu",
    "lat": 13.0415372,
    "lng": 80.2457829
  },
  {
    "name": "Hotel Terra 33/79Dr, Giriyappa Rd, Drivers Colony, T. Nagar, Chennai, Tamil Nadu",
    "lat": 13.0415372,
    "lng": 80.2457829
  },
  {
    "name": "Hotel Terra 33/79Dr, Giriyappa Rd, Drivers Colony, T. Nagar, Chennai, Tamil Nadu",
    "lat": 13.0415372,
    "lng": 80.2457829
  },
  {
    "name": "Hotel Terra 33/79Dr, Giriyappa Rd, Drivers Colony, T. Nagar, Chennai, Tamil Nadu",
    "lat": 13.0415372,
    "lng": 80.2457829
  },
  {
    "name": "Hotel Terra 33/79Dr, Giriyappa Rd, Drivers Colony, T. Nagar, Chennai, Tamil Nadu",
    "lat": 13.0415372,
    "lng": 80.2457829
  },
  {
    "name": "Hotel Terra 33/79Dr, Giriyappa Rd, Drivers Colony, T. Nagar, Chennai, Tamil Nadu",
    "lat": 13.0415372,
    "lng": 80.2457829
  },
  {
    "name": "Hotel Terra 33/79Dr, Giriyappa Rd, Drivers Colony, T. Nagar, Chennai, Tamil Nadu",
    "lat": 13.0415372,
    "lng": 80.2457829
  },
  {
    "name": "The Loft by Town Space, 90, 151, Avvai Shanmugham Salai, Royapettah, Chennai",
    "lat": 13.0477221,
    "lng": 80.265722
  },
  {
    "name": "The Loft by Town Space, 90, 151, Avvai Shanmugham Salai, Royapettah, Chennai",
    "lat": 13.0477221,
    "lng": 80.265722
  },
  {
    "name": "The Loft by Town Space, 90, 151, Avvai Shanmugham Salai, Royapettah, Chennai",
    "lat": 13.0477221,
    "lng": 80.265722
  },
  {
    "name": "The Loft by Town Space, 90, 151, Avvai Shanmugham Salai, Royapettah, Chennai",
    "lat": 13.0477221,
    "lng": 80.265722
  },
  {
    "name": "The Loft by Town Space, 90, 151, Avvai Shanmugham Salai, Royapettah, Chennai",
    "lat": 13.0477221,
    "lng": 80.265722
  },
  {
    "name": "The Loft by Town Space, 90, 151, Avvai Shanmugham Salai, Royapettah, Chennai",
    "lat": 13.0477221,
    "lng": 80.265722
  },
  {
    "name": "The Loft by Town Space, 90, 151, Avvai Shanmugham Salai, Royapettah, Chennai",
    "lat": 13.0477221,
    "lng": 80.265722
  },
  {
    "name": "The Loft by Town Space, 90, 151, Avvai Shanmugham Salai, Royapettah, Chennai",
    "lat": 13.0477221,
    "lng": 80.265722
  },
  {
    "name": "The Kings Park Grand US Consulate 4, 11, Kodambakkam High Rd, Tirumurthy Nagar Chennai",
    "lat": 13.053277,
    "lng": 80.248269
  },
  {
    "name": "The Kings Park Grand US Consulate 4, 11, Kodambakkam High Rd, Tirumurthy Nagar Chennai",
    "lat": 13.053277,
    "lng": 80.248269
  },
  {
    "name": "The Kings Park Grand US Consulate 4, 11, Kodambakkam High Rd, Tirumurthy Nagar Chennai",
    "lat": 13.053277,
    "lng": 80.248269
  },
  {
    "name": "The Kings Park Grand US Consulate 4, 11, Kodambakkam High Rd, Tirumurthy Nagar Chennai",
    "lat": 13.053277,
    "lng": 80.248269
  },
  {
    "name": "The Kings Park Grand US Consulate 4, 11, Kodambakkam High Rd, Tirumurthy Nagar Chennai",
    "lat": 13.053277,
    "lng": 80.248269
  },
  {
    "name": "The Kings Park Grand US Consulate 4, 11, Kodambakkam High Rd, Tirumurthy Nagar Chennai",
    "lat": 13.053277,
    "lng": 80.248269
  },
  {
    "name": "The Kings Park Grand US Consulate 4, 11, Kodambakkam High Rd, Tirumurthy Nagar Chennai",
    "lat": 13.053277,
    "lng": 80.248269
  },
  {
    "name": "The Kings Park Grand US Consulate 4, 11, Kodambakkam High Rd, Tirumurthy Nagar Chennai",
    "lat": 13.053277,
    "lng": 80.248269
  },
  {
    "name": "Century courtyard 140, osite Greams Road, Thousand Lights West, Thousand Lights, Sangeetha, Chennai",
    "lat": 13.056218,
    "lng": 80.255185
  },